ParentLocation,Location,Value,Latitude,Longitude,Year
South-East Asia,Democratic People's Republic of Korea,0,40.3736611,127.0870417,2022
Western Pacific,Papua New Guinea,36,-5.6816069,144.2489081,2022
Africa,Angola,41,-11.8775768,17.5691241,2022
Africa,Central African Republic,46,7.0323598,19.9981227,2022
Eastern Mediterranean,Somalia,47,8.3676771,49.083416,2022
Africa,Guinea,48,10.7226226,-10.7083587,2022
Eastern Mediterranean,Syrian Arab Republic,48,34.6401861,39.0494106,2022
Americas,Venezuela (Bolivarian Republic of),50,8.0018709,-66.1109318,2022
Africa,Guinea-Bissau,51,11.815215,-15.2351044,2022
Americas,Haiti,51,19.1399952,-72.3570972,2022
Africa,Congo,52,-2.9814344,23.8222636,2022
Africa,Liberia,52,5.7499721,-9.3658524,2022
Africa,Equatorial Guinea,55,1.613172,10.5170357,2022
Africa,Madagascar,55,-18.9249604,46.4416422,2022
Africa,Chad,57,15.6134137,19.0156172,2022
Americas,Paraguay,58,-23.3165935,-58.1693445,2022
Africa,Cameroon,59,4.6125522,13.1535811,2022
Eastern Mediterranean,Djibouti,59,11.8145966,42.8453061,2022
Americas,Ecuador,59,-1.3397668,-79.3666965,2022
Africa,Gabon,59,-0.8999695,11.6899699,2022
Africa,Nigeria,62,9.6000359,7.9999721,2022
Africa,Ethiopia,64,10.2116702,38.6521203,2022
Eastern Mediterranean,Lebanon,64,40.375713,-76.4626118,2022
Africa,Lesotho,65,-29.6039267,28.3350193,2022
Africa,Democratic Republic of the Congo,66,-2.9814344,23.8222636,2022
Africa,Mozambique,67,-19.302233,34.9144977,2022
Western Pacific,Micronesia (Federated States of),68,8.6062347,151.832744331612,2022
Western Pacific,Vanuatu,68,-16.5255069,168.1069154,2022
Eastern Mediterranean,Yemen,68,16.3471243,47.8915271,2022
Americas,Bolivia (Plurinational State of),69,-17.0568696,-64.9912286,2022
Africa,Gambia,69,13.470062,-15.4900464,2022
Western Pacific,Lao People's Democratic Republic,69,20.0171109,103.378253,2022
Europe,Ukraine,69,49.4871968,31.2718321,2022
Western Pacific,Viet Nam,70,15.9266657,107.9650855,2022
Africa,Mauritania,71,20.2540382,-9.2399263,2022
Western Pacific,Cook Islands,72,-19.99697155,-157.78587140620786,2022
Africa,Mali,72,16.3700359,-2.2900239,2022
Africa,South Sudan,72,7.8699431,29.6667897,2022
Africa,Côte d’Ivoire,73,7.9897371,-5.5679458,2022
Americas,Grenada,73,12.1360374,-61.6904045,2022
Eastern Mediterranean,Libya,73,26.8234472,18.1236723,2022
Western Pacific,Philippines,73,12.7503486,122.7312101,2022
Americas,El Salvador,74,13.8000382,-88.9140683,2022
Africa,Benin,75,9.5293472,2.2584408,2022
Europe,Bosnia and Herzegovina,75,44.3053476,17.5961467,2022
Americas,Brazil,75,-10.3333333,-53.2,2022
South-East Asia,Myanmar,75,22.0452303,96.4514694,2022
Africa,Togo,75,8.7800265,1.0199765,2022
Eastern Mediterranean,Afghanistan,76,33.7680065,66.2385139,2022
Americas,Guatemala,76,15.5855545,-90.345759,2022
Eastern Mediterranean,Jordan,76,32.3635964,35.561242,2022
Western Pacific,Samoa,76,-13.7693895,-172.12005,2022
Africa,Algeria,77,28.0000272,2.9999825,2022
Americas,Honduras,78,15.2572432,-86.0755145,2022
Americas,Suriname,78,4.1413025,-56.0771187,2022
Europe,Montenegro,80,-12.6998188,-38.3260762,2022
Americas,Saint Lucia,80,13.8250489,-60.975036,2022
Americas,Argentina,81,-34.9964963,-64.9672817,2022
Americas,Peru,82,-6.8699697,-75.0458515,2022
Western Pacific,Cambodia,83,4.0213151,-73.1292624,2022
Americas,Mexico,83,19.4326296,-99.1331785,2022
Europe,Austria,84,47.59397,14.12456,2022
Americas,Belize,84,16.8259793,-88.7600927,2022
Africa,Niger,84,17.7356214,9.3238432,2022
Europe,The former Yugoslav Republic of Macedonia,84,,,2022
Africa,Zambia,84,-14.5189121,27.5589884,2022
Europe,Estonia,85,58.7523778,25.3319078,2022
Europe,Georgia,85,32.3293809,-83.1137366,2022
Eastern Mediterranean,Pakistan,85,30.3308401,71.247499,2022
Europe,Romania,85,45.9852129,24.6859225,2022
Africa,South Africa,85,-28.8166236,24.991639,2022
Eastern Mediterranean,Sudan,85,10.9,6.5,2022
Americas,Barbados,86,13.1500331,-59.5250305,2022
Americas,Colombia,86,4.099917,-72.9088133,2022
South-East Asia,Indonesia,86,-2.4833826,117.8902853,2022
Western Pacific,Marshall Islands,86,8.230816999999998,167.7953223704529,2022
Africa,Namibia,86,-23.2335499,17.3231107,2022
South-East Asia,Timor-Leste,86,-8.7443169,126.063482,2022
Americas,Bahamas,87,24.7736546,-78.0000547,2022
Africa,Kenya,87,1.4419683,38.4313975,2022
Africa,Malawi,87,-13.2687204,33.9301963,2022
South-East Asia,Nepal,87,31.2496266,73.6632218,2022
Americas,Panama,87,8.559559,-81.1308434,2022
Europe,Azerbaijan,88,40.3936294,47.7872508,2022
Africa,Comoros,88,-12.2045176,44.2832964,2022
Americas,Dominican Republic,88,19.0974031,-70.3028026,2022
Europe,Republic of Moldova,88,47.2879608,28.5670941,2022
Africa,Senegal,88,14.4750607,-14.4529612,2022
Africa,United Republic of Tanzania,88,-6.5247123,35.7878438,2022
Western Pacific,New Zealand,89,-41.5000831,172.8344077,2022
Europe,Slovenia,89,46.1199444,14.8153333,2022
Western Pacific,Solomon Islands,89,-8.7053941,159.1070693851845,2022
Africa,Ghana,90,8.0300284,-1.0800271,2022
Western Pacific,Kiribati,90,0.3448612,173.6641773,2022
Europe,Lithuania,90,55.3500003,23.7499997,2022
Western Pacific,Tuvalu,90,-8.6405212,179.1582918181797,2022
Africa,Uganda,90,1.5333554,32.2166578,2022
Africa,Zimbabwe,90,-18.4554963,29.7468414,2022
Europe,Bulgaria,91,46.7889169,23.6184909,2022
Africa,Burkina Faso,91,12.0753083,-1.6880314,2022
Africa,Burundi,91,-3.426449,29.9324519,2022
Europe,Finland,91,63.2467777,25.9209164,2022
Europe,Germany,91,40.4203479,-79.1166983,2022
Europe,Poland,91,52.215933,19.134422,2022
Africa,Sierra Leone,91,8.6400349,-11.8400269,2022
Americas,Canada,92,61.0666922,-107.991707,2022
Europe,Croatia,92,45.3658443,15.6575209,2022
Americas,Dominica,92,15.4113138,-61.3653618,2022
Europe,Iceland,92,64.9841821,-18.1059013,2022
Eastern Mediterranean,Iraq,92,33.0955793,44.1749775,2022
Europe,Kyrgyzstan,92,42.4858224,74.714583,2022
Americas,Saint Vincent and the Grenadines,92,12.90447,-61.2765569,2022
Europe,San Marino,92,43.9458623,12.458306,2022
Europe,Serbia,92,44.02432285,21.07657433209902,2022
Europe,United Kingdom of Great Britain and Northern Ireland,92,54.7023545,-3.2765753,2022
Europe,Armenia,93,4.491976149999999,-75.74135085294314,2022
South-East Asia,India,93,22.3511148,78.6677428,2022
Europe,Ireland,93,52.865196,-7.9794599,2022
Europe,Netherlands,93,52.2434979,5.6343227,2022
Americas,Nicaragua,93,12.6090157,-85.2936911,2022
Africa,Sao Tome and Principe,93,0.9713095,7.02255,2022
Europe,Spain,93,39.3260685,-4.8379791,2022
Americas,United States of America,93,39.7837304,-100.445882,2022
Western Pacific,Australia,94,-24.7761086,134.755,2022
Africa,Cabo Verde,94,16.0000552,-24.0083947,2022
Europe,Czechia,94,49.7439047,15.3381061,2022
Americas,Jamaica,94,18.1850507,-77.3947693,2022
Western Pacific,Palau,94,42.5717989,2.9600905,2022
Europe,Sweden,94,44.133435,-70.822678,2022
Americas,Trinidad and Tobago,94,10.7466905,-61.0840075,2022
Americas,Uruguay,94,-32.8755548,-56.0201525,2022
Americas,Costa Rica,95,9.5364569,-84.17566257468567,2022
Africa,Eritrea,95,15.9500319,37.9999668,2022
Europe,Italy,95,42.6384261,12.674297,2022
Eastern Mediterranean,Kuwait,95,29.3796532,47.9734174,2022
Europe,Latvia,95,56.8406494,24.7537645,2022
Africa,Mauritius,95,-20.2759451,57.5703566,2022
Western Pacific,Mongolia,95,43.9382593,-79.2235563,2022
Eastern Mediterranean,United Arab Emirates,95,24.0002488,53.9994829,2022
Africa,Botswana,96,-23.1681782,24.5928742,2022
Americas,Chile,96,-31.7613365,-71.3187697,2022
Europe,Cyprus,96,34.9174159,32.889902651331866,2022
Europe,France,96,46.603354,1.8883335,2022
Americas,Saint Kitts and Nevis,96,17.250512,-62.6725973,2022
Europe,Switzerland,96,46.7985624,8.2319736,2022
Europe,Andorra,97,42.5407167,1.5732033,2022
Eastern Mediterranean,Bahrain,97,26.0280409,50.55316820508136,2022
Eastern Mediterranean,Egypt,97,35.8681298,-90.9456751,2022
Africa,Eswatini,97,-26.5624806,31.3991317,2022
Americas,Guyana,97,4.8417097,-58.6416891,2022
Western Pacific,Malaysia,97,4.5693754,102.2656823,2022
Europe,Norway,97,64.5731537,11.52803643954819,2022
Eastern Mediterranean,Oman,97,42.2679001,26.9246399,2022
Western Pacific,Republic of Korea,97,36.638392,127.6961188,2022
Europe,Russian Federation,97,64.6863136,97.7453061,2022
Africa,Seychelles,97,-4.6574977,55.4540146,2022
Western Pacific,Singapore,97,1.357107,103.8194992,2022
Europe,Slovakia,97,48.7411522,19.4528646,2022
Europe,Tajikistan,97,38.6281733,70.8156541,2022
South-East Asia,Thailand,97,13.03876215,101.700176119076,2022
Eastern Mediterranean,Tunisia,97,36.8002068,10.1857757,2022
Europe,Albania,98,1.2315264,-75.89204331320687,2022
South-East Asia,Bangladesh,98,-0.2864982,36.0514231,2022
Europe,Belarus,98,53.4250605,27.6971358,2022
Europe,Belgium,98,50.6402809,4.6667145,2022
South-East Asia,Bhutan,98,33.0204804,75.6458366,2022
Americas,Cuba,98,23.0131338,-80.8328748,2022
Europe,Denmark,98,55.670249,10.3333283,2022
Europe,Israel,98,30.8124247,34.8594762,2022
Europe,Malta,98,35.8885993,14.4476911,2022
Western Pacific,Nauru,98,-0.5252306,166.9324426,2022
Africa,Rwanda,98,-1.9646631,30.0644358,2022
Eastern Mediterranean,Saudi Arabia,98,25.6242618,42.3528328,2022
South-East Asia,Sri Lanka,98,7.5554942,80.7137847,2022
Europe,Turkmenistan,98,39.3763807,59.3924609,2022
Americas,Antigua and Barbuda,99,17.2234721,-61.9554608,2022
Western Pacific,Brunei Darussalam,99,4.4137155,114.5653908,2022
Western Pacific,China,99,30.047992,-94.3357433,2022
Western Pacific,Fiji,99,-18.1239696,179.0122737,2022
Europe,Greece,99,43.2097838,-77.6930602,2022
Europe,Hungary,99,41.9767629,-72.7789842,2022
Eastern Mediterranean,Iran (Islamic Republic of),99,36.2619477,59.6051728,2022
Western Pacific,Japan,99,36.5748441,139.2394179,2022
Europe,Kazakhstan,99,48.1012954,66.7780818,2022
Europe,Luxembourg,99,49.6112768,6.129799,2022
South-East Asia,Maldives,99,3.7203503,73.2244152,2022
Europe,Monaco,99,43.7323492,7.4276832,2022
Eastern Mediterranean,Morocco,99,28.3347722,-10.371337908392649,2022
Western Pacific,Niue,99,-19.0536414,-169.861341,2022
Eastern Mediterranean,Occupied Palestinian territory,99,,,2022
Europe,Portugal,99,39.6621648,-8.1353519,2022
Eastern Mediterranean,Qatar,99,39.1074426,47.5061085,2022
Europe,Türkiye,99,38.9597594,34.9249653,2022
Western Pacific,Tonga,99,-19.9160819,-175.202642,2022
Europe,Uzbekistan,99,41.32373,63.9528098,2022
South-East Asia,Democratic People's Republic of Korea,0,40.3736611,127.0870417,2021
Africa,Guinea-Bissau,23,11.815215,-15.2351044,2021
Western Pacific,Papua New Guinea,32,-5.6816069,144.2489081,2021
Africa,Angola,43,-11.8775768,17.5691241,2021
South-East Asia,Myanmar,43,22.0452303,96.4514694,2021
Africa,Central African Republic,46,7.0323598,19.9981227,2021
Eastern Mediterranean,Somalia,47,8.3676771,49.083416,2021
Africa,Guinea,48,10.7226226,-10.7083587,2021
Americas,Venezuela (Bolivarian Republic of),50,8.0018709,-66.1109318,2021
Americas,Haiti,51,19.1399952,-72.3570972,2021
Eastern Mediterranean,Syrian Arab Republic,52,34.6401861,39.0494106,2021
Africa,Equatorial Guinea,55,1.613172,10.5170357,2021
Africa,Madagascar,55,-18.9249604,46.4416422,2021
Western Pacific,Philippines,56,12.7503486,122.7312101,2021
Africa,Chad,58,15.6134137,19.0156172,2021
Eastern Mediterranean,Djibouti,59,11.8145966,42.8453061,2021
Africa,Eswatini,61,-26.5624806,31.3991317,2021
Americas,Ecuador,62,-1.3397668,-79.3666965,2021
Africa,Nigeria,62,9.6000359,7.9999721,2021
Western Pacific,Vanuatu,62,-16.5255069,168.1069154,2021
Eastern Mediterranean,Lebanon,64,40.375713,-76.4626118,2021
Africa,Liberia,64,5.7499721,-9.3658524,2021
Africa,Democratic Republic of the Congo,65,-2.9814344,23.8222636,2021
Africa,Mauritania,66,20.2540382,-9.2399263,2021
Americas,Paraguay,66,-23.3165935,-58.1693445,2021
Eastern Mediterranean,Yemen,66,16.3471243,47.8915271,2021
Africa,Mozambique,67,-19.302233,34.9144977,2021
Americas,Brazil,68,-10.3333333,-53.2,2021
Africa,Ethiopia,68,10.2116702,38.6521203,2021
South-East Asia,Indonesia,68,-2.4833826,117.8902853,2021
Africa,Gabon,69,-0.8999695,11.6899699,2021
Africa,South Sudan,69,7.8699431,29.6667897,2021
Americas,Bolivia (Plurinational State of),70,-17.0568696,-64.9912286,2021
Africa,Cameroon,70,4.6125522,13.1535811,2021
Africa,United Republic of Tanzania,70,-6.5247123,35.7878438,2021
Eastern Mediterranean,Afghanistan,71,33.7680065,66.2385139,2021
Africa,Mali,72,16.3700359,-2.2900239,2021
Western Pacific,Micronesia (Federated States of),72,8.6062347,151.832744331612,2021
Americas,Suriname,72,4.1413025,-56.0771187,2021
Africa,Côte d’Ivoire,73,7.9897371,-5.5679458,2021
Eastern Mediterranean,Libya,73,26.8234472,18.1236723,2021
Africa,Namibia,73,-23.2335499,17.3231107,2021
Western Pacific,Lao People's Democratic Republic,74,20.0171109,103.378253,2021
Africa,Benin,75,9.5293472,2.2584408,2021
Europe,Bosnia and Herzegovina,75,44.3053476,17.5961467,2021
Africa,Congo,75,-2.9814344,23.8222636,2021
Americas,Saint Lucia,75,13.8250489,-60.975036,2021
Eastern Mediterranean,Jordan,76,32.3635964,35.561242,2021
Americas,Grenada,77,12.1360374,-61.6904045,2021
Americas,Honduras,77,15.2572432,-86.0755145,2021
Americas,El Salvador,78,13.8000382,-88.9140683,2021
Americas,Guatemala,78,15.5855545,-90.345759,2021
Eastern Mediterranean,Iraq,78,33.0955793,44.1749775,2021
Americas,Mexico,78,19.4326296,-99.1331785,2021
Europe,Ukraine,78,49.4871968,31.2718321,2021
Americas,Argentina,79,-34.9964963,-64.9672817,2021
Americas,Peru,79,-6.8699697,-75.0458515,2021
Western Pacific,Samoa,80,-13.7693895,-172.12005,2021
Africa,Algeria,81,28.0000272,2.9999825,2021
Western Pacific,Cook Islands,81,-19.99697155,-157.78587140620786,2021
Europe,The former Yugoslav Republic of Macedonia,81,,,2021
Africa,Togo,81,8.7800265,1.0199765,2021
Western Pacific,Viet Nam,81,15.9266657,107.9650855,2021
Africa,Niger,82,17.7356214,9.3238432,2021
Americas,Belize,83,16.8259793,-88.7600927,2021
Americas,Dominican Republic,83,19.0974031,-70.3028026,2021
Europe,Montenegro,83,-12.6998188,-38.3260762,2021
Eastern Mediterranean,Pakistan,83,30.3308401,71.247499,2021
Americas,Barbados,84,13.1500331,-59.5250305,2021
Western Pacific,Solomon Islands,84,-8.7053941,159.1070693851845,2021
Europe,Georgia,85,32.3293809,-83.1137366,2021
South-East Asia,India,85,22.3511148,78.6677428,2021
Western Pacific,Marshall Islands,85,8.230816999999998,167.7953223704529,2021
Africa,Senegal,85,14.4750607,-14.4529612,2021
Eastern Mediterranean,Sudan,85,10.9,6.5,2021
Europe,Austria,86,47.59397,14.12456,2021
Americas,Bahamas,86,24.7736546,-78.0000547,2021
Americas,Colombia,86,4.099917,-72.9088133,2021
Western Pacific,Kiribati,86,0.3448612,173.6641773,2021
Europe,Romania,86,45.9852129,24.6859225,2021
Europe,Slovenia,86,46.1199444,14.8153333,2021
Africa,South Africa,86,-28.8166236,24.991639,2021
South-East Asia,Timor-Leste,86,-8.7443169,126.063482,2021
Western Pacific,Cambodia,87,4.0213151,-73.1292624,2021
Africa,Lesotho,87,-29.6039267,28.3350193,2021
Americas,Panama,87,8.559559,-81.1308434,2021
Western Pacific,Tuvalu,87,-8.6405212,179.1582918181797,2021
Africa,Zambia,87,-14.5189121,27.5589884,2021
Americas,Nicaragua,88,12.6090157,-85.2936911,2021
Europe,Republic of Moldova,88,47.2879608,28.5670941,2021
Africa,Rwanda,88,-1.9646631,30.0644358,2021
Africa,Zimbabwe,88,-18.4554963,29.7468414,2021
Europe,Bulgaria,89,46.7889169,23.6184909,2021
Europe,Estonia,89,58.7523778,25.3319078,2021
Europe,Finland,89,63.2467777,25.9209164,2021
Africa,Gambia,89,13.470062,-15.4900464,2021
Africa,Malawi,89,-13.2687204,33.9301963,2021
Americas,Jamaica,90,18.1850507,-77.3947693,2021
Europe,Kyrgyzstan,90,42.4858224,74.714583,2021
Europe,Lithuania,90,55.3500003,23.7499997,2021
Western Pacific,New Zealand,90,-41.5000831,172.8344077,2021
Europe,San Marino,90,43.9458623,12.458306,2021
Africa,Sierra Leone,90,8.6400349,-11.8400269,2021
Americas,Uruguay,90,-32.8755548,-56.0201525,2021
Africa,Burkina Faso,91,12.0753083,-1.6880314,2021
Europe,Germany,91,40.4203479,-79.1166983,2021
Africa,Kenya,91,1.4419683,38.4313975,2021
South-East Asia,Nepal,91,31.2496266,73.6632218,2021
Europe,Poland,91,52.215933,19.134422,2021
Europe,Serbia,91,44.02432285,21.07657433209902,2021
Africa,Uganda,91,1.5333554,32.2166578,2021
Americas,Antigua and Barbuda,92,17.2234721,-61.9554608,2021
Americas,Canada,92,61.0666922,-107.991707,2021
Americas,Costa Rica,92,9.5364569,-84.17566257468567,2021
Europe,Croatia,92,45.3658443,15.6575209,2021
Americas,Dominica,92,15.4113138,-61.3653618,2021
Europe,Iceland,92,64.9841821,-18.1059013,2021
Americas,Saint Vincent and the Grenadines,92,12.90447,-61.2765569,2021
Europe,Spain,92,39.3260685,-4.8379791,2021
Europe,Armenia,93,4.491976149999999,-75.74135085294314,2021
Europe,Azerbaijan,93,40.3936294,47.7872508,2021
Africa,Mauritius,93,-20.2759451,57.5703566,2021
Africa,Sao Tome and Principe,93,0.9713095,7.02255,2021
Europe,United Kingdom of Great Britain and Northern Ireland,93,54.7023545,-3.2765753,2021
Americas,United States of America,93,39.7837304,-100.445882,2021
Africa,Burundi,94,-3.426449,29.9324519,2021
Africa,Cabo Verde,94,16.0000552,-24.0083947,2021
Africa,Comoros,94,-12.2045176,44.2832964,2021
Europe,Czechia,94,49.7439047,15.3381061,2021
Europe,Ireland,94,52.865196,-7.9794599,2021
Europe,Italy,94,42.6384261,12.674297,2021
Eastern Mediterranean,Kuwait,94,29.3796532,47.9734174,2021
Europe,Latvia,94,56.8406494,24.7537645,2021
Africa,Seychelles,94,-4.6574977,55.4540146,2021
Americas,Trinidad and Tobago,94,10.7466905,-61.0840075,2021
Western Pacific,Australia,95,-24.7761086,134.755,2021
Americas,Chile,95,-31.7613365,-71.3187697,2021
Africa,Eritrea,95,15.9500319,37.9999668,2021
Europe,Kazakhstan,95,48.1012954,66.7780818,2021
Western Pacific,Malaysia,95,4.5693754,102.2656823,2021
Europe,Netherlands,95,52.2434979,5.6343227,2021
Eastern Mediterranean,Occupied Palestinian territory,95,,,2021
Western Pacific,Palau,95,42.5717989,2.9600905,2021
Europe,Türkiye,95,38.9597594,34.9249653,2021
Africa,Botswana,96,-23.1681782,24.5928742,2021
Europe,Cyprus,96,34.9174159,32.889902651331866,2021
Eastern Mediterranean,Egypt,96,35.8681298,-90.9456751,2021
Europe,France,96,46.603354,1.8883335,2021
Western Pacific,Mongolia,96,43.9382593,-79.2235563,2021
Americas,Saint Kitts and Nevis,96,17.250512,-62.6725973,2021
South-East Asia,Sri Lanka,96,7.5554942,80.7137847,2021
Europe,Switzerland,96,46.7985624,8.2319736,2021
Eastern Mediterranean,United Arab Emirates,96,24.0002488,53.9994829,2021
Europe,Belarus,97,53.4250605,27.6971358,2021
Europe,Denmark,97,55.670249,10.3333283,2021
Americas,Guyana,97,4.8417097,-58.6416891,2021
South-East Asia,Maldives,97,3.7203503,73.2244152,2021
Europe,Norway,97,64.5731537,11.52803643954819,2021
Europe,Russian Federation,97,64.6863136,97.7453061,2021
Eastern Mediterranean,Saudi Arabia,97,25.6242618,42.3528328,2021
Europe,Slovakia,97,48.7411522,19.4528646,2021
Europe,Tajikistan,97,38.6281733,70.8156541,2021
South-East Asia,Thailand,97,13.03876215,101.700176119076,2021
Eastern Mediterranean,Tunisia,97,36.8002068,10.1857757,2021
Europe,Turkmenistan,97,39.3763807,59.3924609,2021
Europe,Albania,98,1.2315264,-75.89204331320687,2021
Europe,Andorra,98,42.5407167,1.5732033,2021
South-East Asia,Bangladesh,98,-0.2864982,36.0514231,2021
Europe,Belgium,98,50.6402809,4.6667145,2021
South-East Asia,Bhutan,98,33.0204804,75.6458366,2021
Americas,Cuba,98,23.0131338,-80.8328748,2021
Africa,Ghana,98,8.0300284,-1.0800271,2021
Eastern Mediterranean,Iran (Islamic Republic of),98,36.2619477,59.6051728,2021
Europe,Israel,98,30.8124247,34.8594762,2021
Western Pacific,Nauru,98,-0.5252306,166.9324426,2021
Eastern Mediterranean,Qatar,98,39.1074426,47.5061085,2021
Western Pacific,Republic of Korea,98,36.638392,127.6961188,2021
Western Pacific,Singapore,98,1.357107,103.8194992,2021
Europe,Sweden,98,44.133435,-70.822678,2021
Eastern Mediterranean,Bahrain,99,26.0280409,50.55316820508136,2021
Western Pacific,Brunei Darussalam,99,4.4137155,114.5653908,2021
Western Pacific,China,99,30.047992,-94.3357433,2021
Western Pacific,Fiji,99,-18.1239696,179.0122737,2021
Europe,Greece,99,43.2097838,-77.6930602,2021
Europe,Hungary,99,41.9767629,-72.7789842,2021
Western Pacific,Japan,99,36.5748441,139.2394179,2021
Europe,Luxembourg,99,49.6112768,6.129799,2021
Europe,Malta,99,35.8885993,14.4476911,2021
Europe,Monaco,99,43.7323492,7.4276832,2021
Eastern Mediterranean,Morocco,99,28.3347722,-10.371337908392649,2021
Western Pacific,Niue,99,-19.0536414,-169.861341,2021
Eastern Mediterranean,Oman,99,42.2679001,26.9246399,2021
Europe,Portugal,99,39.6621648,-8.1353519,2021
Western Pacific,Tonga,99,-19.9160819,-175.202642,2021
Europe,Uzbekistan,99,41.32373,63.9528098,2021
Western Pacific,Papua New Guinea,41,-5.6816069,144.2489081,2020
Africa,Central African Republic,46,7.0323598,19.9981227,2020
Eastern Mediterranean,Somalia,47,8.3676771,49.083416,2020
Africa,Guinea,48,10.7226226,-10.7083587,2020
Africa,Angola,51,-11.8775768,17.5691241,2020
Americas,Haiti,51,19.1399952,-72.3570972,2020
Americas,Suriname,51,4.1413025,-56.0771187,2020
Africa,Chad,52,15.6134137,19.0156172,2020
Eastern Mediterranean,Syrian Arab Republic,53,34.6401861,39.0494106,2020
Africa,Equatorial Guinea,55,1.613172,10.5170357,2020
Africa,Gabon,62,-0.8999695,11.6899699,2020
Africa,Nigeria,62,9.6000359,7.9999721,2020
Americas,Venezuela (Bolivarian Republic of),62,8.0018709,-66.1109318,2020
Africa,Guinea-Bissau,63,11.815215,-15.2351044,2020
Africa,Mali,65,16.3700359,-2.2900239,2020
Africa,South Sudan,65,7.8699431,29.6667897,2020
Africa,United Republic of Tanzania,65,-6.5247123,35.7878438,2020
Eastern Mediterranean,Yemen,66,16.3471243,47.8915271,2020
Africa,Côte d’Ivoire,67,7.9897371,-5.5679458,2020
Eastern Mediterranean,Lebanon,67,40.375713,-76.4626118,2020
Africa,Liberia,67,5.7499721,-9.3658524,2020
Africa,Madagascar,67,-18.9249604,46.4416422,2020
Americas,Bolivia (Plurinational State of),68,-17.0568696,-64.9912286,2020
Africa,Cameroon,70,4.6125522,13.1535811,2020
South-East Asia,Democratic People's Republic of Korea,70,40.3736611,127.0870417,2020
Eastern Mediterranean,Djibouti,70,11.8145966,42.8453061,2020
Africa,Mauritania,71,20.2540382,-9.2399263,2020
Africa,Democratic Republic of the Congo,72,-2.9814344,23.8222636,2020
Americas,Ecuador,72,-1.3397668,-79.3666965,2020
Americas,Grenada,72,12.1360374,-61.6904045,2020
Americas,Mexico,72,19.4326296,-99.1331785,2020
Americas,Peru,72,-6.8699697,-75.0458515,2020
Western Pacific,Philippines,72,12.7503486,122.7312101,2020
Africa,Benin,73,9.5293472,2.2584408,2020
Africa,Congo,73,-2.9814344,23.8222636,2020
Americas,El Salvador,73,13.8000382,-88.9140683,2020
Eastern Mediterranean,Libya,73,26.8234472,18.1236723,2020
Africa,Mozambique,73,-19.302233,34.9144977,2020
Americas,Argentina,74,-34.9964963,-64.9672817,2020
Europe,Bosnia and Herzegovina,74,44.3053476,17.5961467,2020
Americas,Brazil,74,-10.3333333,-53.2,2020
Africa,Ethiopia,74,10.2116702,38.6521203,2020
Americas,Panama,74,8.559559,-81.1308434,2020
Eastern Mediterranean,Afghanistan,75,33.7680065,66.2385139,2020
South-East Asia,Indonesia,76,-2.4833826,117.8902853,2020
Eastern Mediterranean,Jordan,76,32.3635964,35.561242,2020
Western Pacific,Vanuatu,76,-16.5255069,168.1069154,2020
Eastern Mediterranean,Iraq,78,33.0955793,44.1749775,2020
Western Pacific,Lao People's Democratic Republic,78,20.0171109,103.378253,2020
Americas,Paraguay,78,-23.3165935,-58.1693445,2020
Americas,Belize,79,16.8259793,-88.7600927,2020
Americas,Dominican Republic,80,19.0974031,-70.3028026,2020
Americas,Honduras,80,15.2572432,-86.0755145,2020
Africa,Togo,80,8.7800265,1.0199765,2020
Eastern Mediterranean,United Arab Emirates,80,24.0002488,53.9994829,2020
Western Pacific,Viet Nam,80,15.9266657,107.9650855,2020
Africa,Niger,81,17.7356214,9.3238432,2020
Africa,Eswatini,82,-26.5624806,31.3991317,2020
Western Pacific,Marshall Islands,82,8.230816999999998,167.7953223704529,2020
Western Pacific,Micronesia (Federated States of),82,8.6062347,151.832744331612,2020
Americas,Bahamas,83,24.7736546,-78.0000547,2020
Americas,Guatemala,83,15.5855545,-90.345759,2020
Eastern Mediterranean,Pakistan,83,30.3308401,71.247499,2020
Africa,Zambia,83,-14.5189121,27.5589884,2020
Africa,Algeria,84,28.0000272,2.9999825,2020
Europe,Montenegro,84,-12.6998188,-38.3260762,2020
South-East Asia,Nepal,84,31.2496266,73.6632218,2020
Europe,The former Yugoslav Republic of Macedonia,84,,,2020
Africa,South Africa,84,-28.8166236,24.991639,2020
Europe,Ukraine,84,49.4871968,31.2718321,2020
Europe,Austria,85,47.59397,14.12456,2020
Europe,Azerbaijan,85,40.3936294,47.7872508,2020
Americas,Barbados,85,13.1500331,-59.5250305,2020
South-East Asia,India,85,22.3511148,78.6677428,2020
Europe,Armenia,86,4.491976149999999,-75.74135085294314,2020
South-East Asia,Myanmar,86,22.0452303,96.4514694,2020
South-East Asia,Timor-Leste,86,-8.7443169,126.063482,2020
Africa,Zimbabwe,86,-18.4554963,29.7468414,2020
Europe,Kyrgyzstan,87,42.4858224,74.714583,2020
Africa,Lesotho,87,-29.6039267,28.3350193,2020
Europe,Republic of Moldova,87,47.2879608,28.5670941,2020
Europe,Romania,87,45.9852129,24.6859225,2020
Western Pacific,Cambodia,88,4.0213151,-73.1292624,2020
Americas,Colombia,88,4.099917,-72.9088133,2020
Europe,Georgia,88,32.3293809,-83.1137366,2020
Europe,Kazakhstan,88,48.1012954,66.7780818,2020
Americas,Saint Lucia,88,13.8250489,-60.975036,2020
Africa,Uganda,88,1.5333554,32.2166578,2020
Western Pacific,Cook Islands,89,-19.99697155,-157.78587140620786,2020
Africa,Gambia,89,13.470062,-15.4900464,2020
Africa,Kenya,89,1.4419683,38.4313975,2020
Eastern Mediterranean,Qatar,89,39.1074426,47.5061085,2020
Western Pacific,Samoa,89,-13.7693895,-172.12005,2020
Europe,San Marino,89,43.9458623,12.458306,2020
Europe,Finland,90,63.2467777,25.9209164,2020
Africa,Sierra Leone,90,8.6400349,-11.8400269,2020
Eastern Mediterranean,Sudan,90,10.9,6.5,2020
Western Pacific,Tuvalu,90,-8.6405212,179.1582918181797,2020
Europe,Bulgaria,91,46.7889169,23.6184909,2020
Africa,Burkina Faso,91,12.0753083,-1.6880314,2020
Europe,Estonia,91,58.7523778,25.3319078,2020
Europe,Germany,91,40.4203479,-79.1166983,2020
Americas,Guyana,91,4.8417097,-58.6416891,2020
Western Pacific,Kiribati,91,0.3448612,173.6641773,2020
Europe,Lithuania,91,55.3500003,23.7499997,2020
Europe,Poland,91,52.215933,19.134422,2020
Africa,Rwanda,91,-1.9646631,30.0644358,2020
Africa,Senegal,91,14.4750607,-14.4529612,2020
Americas,Uruguay,91,-32.8755548,-56.0201525,2020
Americas,Canada,92,61.0666922,-107.991707,2020
Africa,Ghana,92,8.0300284,-1.0800271,2020
Africa,Namibia,92,-23.2335499,17.3231107,2020
Western Pacific,New Zealand,92,-41.5000831,172.8344077,2020
Europe,Serbia,92,44.02432285,21.07657433209902,2020
Western Pacific,Solomon Islands,92,-8.7053941,159.1070693851845,2020
Americas,United States of America,92,39.7837304,-100.445882,2020
Africa,Burundi,93,-3.426449,29.9324519,2020
Americas,Chile,93,-31.7613365,-71.3187697,2020
Europe,Iceland,93,64.9841821,-18.1059013,2020
Africa,Malawi,93,-13.2687204,33.9301963,2020
Americas,Nicaragua,93,12.6090157,-85.2936911,2020
Americas,Trinidad and Tobago,93,10.7466905,-61.0840075,2020
Europe,United Kingdom of Great Britain and Northern Ireland,93,54.7023545,-3.2765753,2020
Africa,Cabo Verde,94,16.0000552,-24.0083947,2020
Africa,Comoros,94,-12.2045176,44.2832964,2020
Europe,Croatia,94,45.3658443,15.6575209,2020
Europe,Ireland,94,52.865196,-7.9794599,2020
Europe,Italy,94,42.6384261,12.674297,2020
Africa,Mauritius,94,-20.2759451,57.5703566,2020
Europe,Netherlands,94,52.2434979,5.6343227,2020
Africa,Sao Tome and Principe,94,0.9713095,7.02255,2020
Europe,Spain,94,39.3260685,-4.8379791,2020
Americas,Antigua and Barbuda,95,17.2234721,-61.9554608,2020
Western Pacific,Australia,95,-24.7761086,134.755,2020
Eastern Mediterranean,Egypt,95,35.8681298,-90.9456751,2020
Africa,Eritrea,95,15.9500319,37.9999668,2020
Americas,Jamaica,95,18.1850507,-77.3947693,2020
Eastern Mediterranean,Kuwait,95,29.3796532,47.9734174,2020
Western Pacific,Nauru,95,-0.5252306,166.9324426,2020
Eastern Mediterranean,Saudi Arabia,95,25.6242618,42.3528328,2020
Europe,Slovenia,95,46.1199444,14.8153333,2020
South-East Asia,Bhutan,96,33.0204804,75.6458366,2020
Africa,Botswana,96,-23.1681782,24.5928742,2020
Europe,Cyprus,96,34.9174159,32.889902651331866,2020
Europe,Czechia,96,49.7439047,15.3381061,2020
Americas,Dominica,96,15.4113138,-61.3653618,2020
Europe,France,96,46.603354,1.8883335,2020
Western Pacific,Japan,96,36.5748441,139.2394179,2020
Western Pacific,Palau,96,42.5717989,2.9600905,2020
South-East Asia,Sri Lanka,96,7.5554942,80.7137847,2020
Europe,Switzerland,96,46.7985624,8.2319736,2020
Europe,Belarus,97,53.4250605,27.6971358,2020
Americas,Costa Rica,97,9.5364569,-84.17566257468567,2020
Europe,Denmark,97,55.670249,10.3333283,2020
Western Pacific,Mongolia,97,43.9382593,-79.2235563,2020
Europe,Norway,97,64.5731537,11.52803643954819,2020
Europe,Russian Federation,97,64.6863136,97.7453061,2020
Africa,Seychelles,97,-4.6574977,55.4540146,2020
Europe,Slovakia,97,48.7411522,19.4528646,2020
Europe,Sweden,97,44.133435,-70.822678,2020
Europe,Tajikistan,97,38.6281733,70.8156541,2020
South-East Asia,Thailand,97,13.03876215,101.700176119076,2020
Eastern Mediterranean,Tunisia,97,36.8002068,10.1857757,2020
Europe,Uzbekistan,97,41.32373,63.9528098,2020
Europe,Albania,98,1.2315264,-75.89204331320687,2020
Eastern Mediterranean,Bahrain,98,26.0280409,50.55316820508136,2020
South-East Asia,Bangladesh,98,-0.2864982,36.0514231,2020
Europe,Belgium,98,50.6402809,4.6667145,2020
Americas,Cuba,98,23.0131338,-80.8328748,2020
Europe,Israel,98,30.8124247,34.8594762,2020
Western Pacific,Malaysia,98,4.5693754,102.2656823,2020
Europe,Malta,98,35.8885993,14.4476911,2020
Eastern Mediterranean,Occupied Palestinian territory,98,,,2020
Western Pacific,Republic of Korea,98,36.638392,127.6961188,2020
Western Pacific,Singapore,98,1.357107,103.8194992,2020
Europe,Türkiye,98,38.9597594,34.9249653,2020
Europe,Turkmenistan,98,39.3763807,59.3924609,2020
Europe,Andorra,99,42.5407167,1.5732033,2020
Western Pacific,Brunei Darussalam,99,4.4137155,114.5653908,2020
Western Pacific,China,99,30.047992,-94.3357433,2020
Western Pacific,Fiji,99,-18.1239696,179.0122737,2020
Europe,Greece,99,43.2097838,-77.6930602,2020
Europe,Hungary,99,41.9767629,-72.7789842,2020
Eastern Mediterranean,Iran (Islamic Republic of),99,36.2619477,59.6051728,2020
Europe,Latvia,99,56.8406494,24.7537645,2020
Europe,Luxembourg,99,49.6112768,6.129799,2020
South-East Asia,Maldives,99,3.7203503,73.2244152,2020
Europe,Monaco,99,43.7323492,7.4276832,2020
Eastern Mediterranean,Morocco,99,28.3347722,-10.371337908392649,2020
Western Pacific,Niue,99,-19.0536414,-169.861341,2020
Eastern Mediterranean,Oman,99,42.2679001,26.9246399,2020
Europe,Portugal,99,39.6621648,-8.1353519,2020
Americas,Saint Kitts and Nevis,99,17.250512,-62.6725973,2020
Americas,Saint Vincent and the Grenadines,99,12.90447,-61.2765569,2020
Western Pacific,Tonga,99,-19.9160819,-175.202642,2020
Western Pacific,Papua New Guinea,42,-5.6816069,144.2489081,2019
Africa,Central African Republic,46,7.0323598,19.9981227,2019
Africa,Chad,47,15.6134137,19.0156172,2019
Eastern Mediterranean,Somalia,47,8.3676771,49.083416,2019
Africa,Guinea,48,10.7226226,-10.7083587,2019
Americas,Haiti,51,19.1399952,-72.3570972,2019
Africa,Equatorial Guinea,55,1.613172,10.5170357,2019
Africa,Angola,56,-11.8775768,17.5691241,2019
Africa,Guinea-Bissau,60,11.815215,-15.2351044,2019
Eastern Mediterranean,Syrian Arab Republic,60,34.6401861,39.0494106,2019
Africa,South Sudan,61,7.8699431,29.6667897,2019
Americas,Venezuela (Bolivarian Republic of),62,8.0018709,-66.1109318,2019
Africa,Nigeria,66,9.6000359,7.9999721,2019
Eastern Mediterranean,Yemen,67,16.3471243,47.8915271,2019
Africa,Cameroon,68,4.6125522,13.1535811,2019
Western Pacific,Samoa,68,-13.7693895,-172.12005,2019
Africa,Liberia,69,5.7499721,-9.3658524,2019
Africa,Madagascar,69,-18.9249604,46.4416422,2019
Africa,Gabon,70,-0.8999695,11.6899699,2019
Africa,Ethiopia,71,10.2116702,38.6521203,2019
Africa,Mali,72,16.3700359,-2.2900239,2019
Eastern Mediterranean,Libya,73,26.8234472,18.1236723,2019
Europe,Bosnia and Herzegovina,74,44.3053476,17.5961467,2019
Africa,Democratic Republic of the Congo,74,-2.9814344,23.8222636,2019
Eastern Mediterranean,Afghanistan,75,33.7680065,66.2385139,2019
Africa,Benin,75,9.5293472,2.2584408,2019
Americas,Bolivia (Plurinational State of),75,-17.0568696,-64.9912286,2019
Africa,Mauritania,75,20.2540382,-9.2399263,2019
Americas,Suriname,76,4.1413025,-56.0771187,2019
Africa,Congo,78,-2.9814344,23.8222636,2019
Western Pacific,Marshall Islands,78,8.230816999999998,167.7953223704529,2019
Western Pacific,Micronesia (Federated States of),78,8.6062347,151.832744331612,2019
Western Pacific,Philippines,78,12.7503486,122.7312101,2019
Africa,Togo,78,8.7800265,1.0199765,2019
Europe,Ukraine,78,49.4871968,31.2718321,2019
Africa,Côte d’Ivoire,80,7.9897371,-5.5679458,2019
Western Pacific,Lao People's Democratic Republic,80,20.0171109,103.378253,2019
Eastern Mediterranean,Lebanon,81,40.375713,-76.4626118,2019
Africa,Niger,81,17.7356214,9.3238432,2019
Americas,Mexico,82,19.4326296,-99.1331785,2019
Americas,Argentina,83,-34.9964963,-64.9672817,2019
Americas,Guatemala,84,15.5855545,-90.345759,2019
Africa,Namibia,84,-23.2335499,17.3231107,2019
Eastern Mediterranean,Pakistan,84,30.3308401,71.247499,2019
Americas,Paraguay,84,-23.3165935,-58.1693445,2019
Europe,Austria,85,47.59397,14.12456,2019
Americas,Brazil,85,-10.3333333,-53.2,2019
Eastern Mediterranean,Djibouti,85,11.8145966,42.8453061,2019
Americas,Ecuador,85,-1.3397668,-79.3666965,2019
South-East Asia,Indonesia,85,-2.4833826,117.8902853,2019
Eastern Mediterranean,Iraq,85,33.0955793,44.1749775,2019
Europe,Montenegro,85,-12.6998188,-38.3260762,2019
Africa,South Africa,85,-28.8166236,24.991639,2019
Eastern Mediterranean,Jordan,87,32.3635964,35.561242,2019
Africa,Lesotho,87,-29.6039267,28.3350193,2019
Americas,Peru,87,-6.8699697,-75.0458515,2019
Europe,Poland,87,52.215933,19.134422,2019
Africa,Algeria,88,28.0000272,2.9999825,2019
Africa,Comoros,88,-12.2045176,44.2832964,2019
Africa,Gambia,88,13.470062,-15.4900464,2019
Americas,Honduras,88,15.2572432,-86.0755145,2019
Africa,Mozambique,88,-19.302233,34.9144977,2019
Americas,Panama,88,8.559559,-81.1308434,2019
Europe,Romania,88,45.9852129,24.6859225,2019
Europe,San Marino,88,43.9458623,12.458306,2019
Americas,Bahamas,89,24.7736546,-78.0000547,2019
Western Pacific,Cambodia,89,4.0213151,-73.1292624,2019
Africa,Eswatini,89,-26.5624806,31.3991317,2019
Africa,United Republic of Tanzania,89,-6.5247123,35.7878438,2019
Western Pacific,Viet Nam,89,15.9266657,107.9650855,2019
Africa,Zambia,89,-14.5189121,27.5589884,2019
Americas,El Salvador,90,13.8000382,-88.9140683,2019
South-East Asia,India,90,22.3511148,78.6677428,2019
South-East Asia,Myanmar,90,22.0452303,96.4514694,2019
South-East Asia,Timor-Leste,90,-8.7443169,126.063482,2019
Western Pacific,Vanuatu,90,-16.5255069,168.1069154,2019
Africa,Zimbabwe,90,-18.4554963,29.7468414,2019
Americas,Barbados,91,13.1500331,-59.5250305,2019
Africa,Burkina Faso,91,12.0753083,-1.6880314,2019
Europe,Estonia,91,58.7523778,25.3319078,2019
Europe,Finland,91,63.2467777,25.9209164,2019
Europe,Germany,91,40.4203479,-79.1166983,2019
Africa,Kenya,91,1.4419683,38.4313975,2019
Americas,Saint Lucia,91,13.8250489,-60.975036,2019
Americas,Canada,92,61.0666922,-107.991707,2019
Americas,Dominican Republic,92,19.0974031,-70.3028026,2019
Europe,Lithuania,92,55.3500003,23.7499997,2019
South-East Asia,Nepal,92,31.2496266,73.6632218,2019
Western Pacific,New Zealand,92,-41.5000831,172.8344077,2019
Europe,The former Yugoslav Republic of Macedonia,92,,,2019
Western Pacific,Tuvalu,92,-8.6405212,179.1582918181797,2019
Africa,Uganda,92,1.5333554,32.2166578,2019
Europe,Bulgaria,93,46.7889169,23.6184909,2019
Africa,Burundi,93,-3.426449,29.9324519,2019
Europe,Iceland,93,64.9841821,-18.1059013,2019
Western Pacific,Solomon Islands,93,-8.7053941,159.1070693851845,2019
Eastern Mediterranean,Sudan,93,10.9,6.5,2019
Americas,Trinidad and Tobago,93,10.7466905,-61.0840075,2019
Europe,United Kingdom of Great Britain and Northern Ireland,93,54.7023545,-3.2765753,2019
Americas,United States of America,93,39.7837304,-100.445882,2019
Americas,Uruguay,93,-32.8755548,-56.0201525,2019
Europe,Armenia,94,4.491976149999999,-75.74135085294314,2019
Americas,Colombia,94,4.099917,-72.9088133,2019
Europe,Croatia,94,45.3658443,15.6575209,2019
Europe,Georgia,94,32.3293809,-83.1137366,2019
Americas,Grenada,94,12.1360374,-61.6904045,2019
Europe,Ireland,94,52.865196,-7.9794599,2019
Western Pacific,Kiribati,94,0.3448612,173.6641773,2019
Africa,Malawi,94,-13.2687204,33.9301963,2019
Europe,Netherlands,94,52.2434979,5.6343227,2019
Europe,Republic of Moldova,94,47.2879608,28.5670941,2019
Americas,Antigua and Barbuda,95,17.2234721,-61.9554608,2019
Western Pacific,Australia,95,-24.7761086,134.755,2019
Eastern Mediterranean,Egypt,95,35.8681298,-90.9456751,2019
Africa,Eritrea,95,15.9500319,37.9999668,2019
Africa,Sao Tome and Principe,95,0.9713095,7.02255,2019
Africa,Sierra Leone,95,8.6400349,-11.8400269,2019
Europe,Slovenia,95,46.1199444,14.8153333,2019
Europe,Spain,95,39.3260685,-4.8379791,2019
Eastern Mediterranean,United Arab Emirates,95,24.0002488,53.9994829,2019
Europe,Azerbaijan,96,40.3936294,47.7872508,2019
Africa,Botswana,96,-23.1681782,24.5928742,2019
Americas,Chile,96,-31.7613365,-71.3187697,2019
Americas,Costa Rica,96,9.5364569,-84.17566257468567,2019
Europe,Cyprus,96,34.9174159,32.889902651331866,2019
Europe,France,96,46.603354,1.8883335,2019
Europe,Italy,96,42.6384261,12.674297,2019
Americas,Jamaica,96,18.1850507,-77.3947693,2019
Europe,Kyrgyzstan,96,42.4858224,74.714583,2019
Western Pacific,Nauru,96,-0.5252306,166.9324426,2019
Europe,Russian Federation,96,64.6863136,97.7453061,2019
Africa,Senegal,96,14.4750607,-14.4529612,2019
Europe,Switzerland,96,46.7985624,8.2319736,2019
South-East Asia,Bhutan,97,33.0204804,75.6458366,2019
Africa,Cabo Verde,97,16.0000552,-24.0083947,2019
Europe,Czechia,97,49.7439047,15.3381061,2019
Europe,Denmark,97,55.670249,10.3333283,2019
Western Pacific,Fiji,97,-18.1239696,179.0122737,2019
Africa,Ghana,97,8.0300284,-1.0800271,2019
Americas,Guyana,97,4.8417097,-58.6416891,2019
Europe,Kazakhstan,97,48.1012954,66.7780818,2019
Eastern Mediterranean,Kuwait,97,29.3796532,47.9734174,2019
Africa,Mauritius,97,-20.2759451,57.5703566,2019
Europe,Norway,97,64.5731537,11.52803643954819,2019
Western Pacific,Palau,97,42.5717989,2.9600905,2019
Americas,Saint Kitts and Nevis,97,17.250512,-62.6725973,2019
Eastern Mediterranean,Saudi Arabia,97,25.6242618,42.3528328,2019
Europe,Serbia,97,44.02432285,21.07657433209902,2019
Western Pacific,Singapore,97,1.357107,103.8194992,2019
Europe,Slovakia,97,48.7411522,19.4528646,2019
Europe,Tajikistan,97,38.6281733,70.8156541,2019
South-East Asia,Thailand,97,13.03876215,101.700176119076,2019
South-East Asia,Bangladesh,98,-0.2864982,36.0514231,2019
Europe,Belarus,98,53.4250605,27.6971358,2019
Europe,Belgium,98,50.6402809,4.6667145,2019
Americas,Belize,98,16.8259793,-88.7600927,2019
Western Pacific,Cook Islands,98,-19.99697155,-157.78587140620786,2019
South-East Asia,Democratic People's Republic of Korea,98,40.3736611,127.0870417,2019
Europe,Israel,98,30.8124247,34.8594762,2019
Western Pacific,Japan,98,36.5748441,139.2394179,2019
Western Pacific,Malaysia,98,4.5693754,102.2656823,2019
Europe,Malta,98,35.8885993,14.4476911,2019
Western Pacific,Mongolia,98,43.9382593,-79.2235563,2019
Western Pacific,Republic of Korea,98,36.638392,127.6961188,2019
Africa,Rwanda,98,-1.9646631,30.0644358,2019
Europe,Sweden,98,44.133435,-70.822678,2019
Eastern Mediterranean,Tunisia,98,36.8002068,10.1857757,2019
Europe,Uzbekistan,98,41.32373,63.9528098,2019
Europe,Albania,99,1.2315264,-75.89204331320687,2019
Europe,Andorra,99,42.5407167,1.5732033,2019
Eastern Mediterranean,Bahrain,99,26.0280409,50.55316820508136,2019
Western Pacific,Brunei Darussalam,99,4.4137155,114.5653908,2019
Western Pacific,China,99,30.047992,-94.3357433,2019
Americas,Cuba,99,23.0131338,-80.8328748,2019
Americas,Dominica,99,15.4113138,-61.3653618,2019
Europe,Greece,99,43.2097838,-77.6930602,2019
Europe,Hungary,99,41.9767629,-72.7789842,2019
Eastern Mediterranean,Iran (Islamic Republic of),99,36.2619477,59.6051728,2019
Europe,Latvia,99,56.8406494,24.7537645,2019
Europe,Luxembourg,99,49.6112768,6.129799,2019
South-East Asia,Maldives,99,3.7203503,73.2244152,2019
Europe,Monaco,99,43.7323492,7.4276832,2019
Eastern Mediterranean,Morocco,99,28.3347722,-10.371337908392649,2019
Americas,Nicaragua,99,12.6090157,-85.2936911,2019
Western Pacific,Niue,99,-19.0536414,-169.861341,2019
Eastern Mediterranean,Occupied Palestinian territory,99,,,2019
Eastern Mediterranean,Oman,99,42.2679001,26.9246399,2019
Europe,Portugal,99,39.6621648,-8.1353519,2019
Eastern Mediterranean,Qatar,99,39.1074426,47.5061085,2019
Americas,Saint Vincent and the Grenadines,99,12.90447,-61.2765569,2019
Africa,Seychelles,99,-4.6574977,55.4540146,2019
South-East Asia,Sri Lanka,99,7.5554942,80.7137847,2019
Europe,Türkiye,99,38.9597594,34.9249653,2019
Western Pacific,Tonga,99,-19.9160819,-175.202642,2019
Europe,Turkmenistan,99,39.3763807,59.3924609,2019
Africa,Chad,41,15.6134137,19.0156172,2018
Western Pacific,Papua New Guinea,42,-5.6816069,144.2489081,2018
Western Pacific,Samoa,44,-13.7693895,-172.12005,2018
Africa,Central African Republic,46,7.0323598,19.9981227,2018
Eastern Mediterranean,Somalia,47,8.3676771,49.083416,2018
Africa,Guinea,48,10.7226226,-10.7083587,2018
Eastern Mediterranean,Syrian Arab Republic,53,34.6401861,39.0494106,2018
Americas,Venezuela (Bolivarian Republic of),53,8.0018709,-66.1109318,2018
Africa,Equatorial Guinea,55,1.613172,10.5170357,2018
Africa,Togo,58,8.7800265,1.0199765,2018
Eastern Mediterranean,Yemen,59,16.3471243,47.8915271,2018
Africa,South Sudan,60,7.8699431,29.6667897,2018
Africa,Angola,61,-11.8775768,17.5691241,2018
Africa,Nigeria,61,9.6000359,7.9999721,2018
Africa,Gabon,64,-0.8999695,11.6899699,2018
Americas,Haiti,64,19.1399952,-72.3570972,2018
Africa,Cameroon,68,4.6125522,13.1535811,2018
Africa,Ethiopia,70,10.2116702,38.6521203,2018
Africa,Madagascar,71,-18.9249604,46.4416422,2018
Europe,Ukraine,71,49.4871968,31.2718321,2018
Africa,Democratic Republic of the Congo,72,-2.9814344,23.8222636,2018
Africa,Mali,72,16.3700359,-2.2900239,2018
Africa,Mauritania,72,20.2540382,-9.2399263,2018
Europe,Bosnia and Herzegovina,73,44.3053476,17.5961467,2018
Eastern Mediterranean,Libya,73,26.8234472,18.1236723,2018
Eastern Mediterranean,Iraq,74,33.0955793,44.1749775,2018
Africa,Benin,75,9.5293472,2.2584408,2018
Africa,Congo,75,-2.9814344,23.8222636,2018
Western Pacific,Micronesia (Federated States of),75,8.6062347,151.832744331612,2018
Eastern Mediterranean,Pakistan,75,30.3308401,71.247499,2018
Eastern Mediterranean,Afghanistan,76,33.7680065,66.2385139,2018
Africa,Liberia,79,5.7499721,-9.3658524,2018
Africa,Niger,79,17.7356214,9.3238432,2018
Western Pacific,Philippines,79,12.7503486,122.7312101,2018
Western Pacific,Marshall Islands,80,8.230816999999998,167.7953223704529,2018
Eastern Mediterranean,Lebanon,81,40.375713,-76.4626118,2018
Americas,Suriname,81,4.1413025,-56.0771187,2018
Africa,Guinea-Bissau,82,11.815215,-15.2351044,2018
Africa,South Africa,82,-28.8166236,24.991639,2018
Africa,United Republic of Tanzania,82,-6.5247123,35.7878438,2018
Americas,Bolivia (Plurinational State of),83,-17.0568696,-64.9912286,2018
South-East Asia,Timor-Leste,83,-8.7443169,126.063482,2018
Americas,Argentina,84,-34.9964963,-64.9672817,2018
Africa,Côte d’Ivoire,84,7.9897371,-5.5679458,2018
Eastern Mediterranean,Djibouti,84,11.8145966,42.8453061,2018
Africa,Namibia,84,-23.2335499,17.3231107,2018
Europe,Austria,85,47.59397,14.12456,2018
Americas,Brazil,85,-10.3333333,-53.2,2018
Americas,Ecuador,85,-1.3397668,-79.3666965,2018
Americas,Guatemala,85,15.5855545,-90.345759,2018
Western Pacific,Lao People's Democratic Republic,85,20.0171109,103.378253,2018
Western Pacific,Solomon Islands,85,-8.7053941,159.1070693851845,2018
Western Pacific,Vanuatu,85,-16.5255069,168.1069154,2018
Western Pacific,Cambodia,86,4.0213151,-73.1292624,2018
Americas,Dominican Republic,86,19.0974031,-70.3028026,2018
Europe,Montenegro,86,-12.6998188,-38.3260762,2018
Europe,Romania,86,45.9852129,24.6859225,2018
South-East Asia,Indonesia,87,-2.4833826,117.8902853,2018
Africa,Lesotho,87,-29.6039267,28.3350193,2018
Americas,Peru,87,-6.8699697,-75.0458515,2018
Europe,Poland,87,52.215933,19.134422,2018
Americas,Mexico,88,19.4326296,-99.1331785,2018
Americas,Panama,88,8.559559,-81.1308434,2018
Americas,Paraguay,88,-23.3165935,-58.1693445,2018
Africa,Uganda,88,1.5333554,32.2166578,2018
Americas,El Salvador,89,13.8000382,-88.9140683,2018
Western Pacific,Tuvalu,89,-8.6405212,179.1582918181797,2018
Africa,Zimbabwe,89,-18.4554963,29.7468414,2018
Americas,Bahamas,90,24.7736546,-78.0000547,2018
Africa,Burundi,90,-3.426449,29.9324519,2018
Africa,Eswatini,90,-26.5624806,31.3991317,2018
South-East Asia,India,90,22.3511148,78.6677428,2018
Western Pacific,Nauru,90,-0.5252306,166.9324426,2018
Western Pacific,Viet Nam,90,15.9266657,107.9650855,2018
Africa,Zambia,90,-14.5189121,27.5589884,2018
Africa,Algeria,91,28.0000272,2.9999825,2018
Africa,Burkina Faso,91,12.0753083,-1.6880314,2018
Americas,Canada,91,61.0666922,-107.991707,2018
Europe,Finland,91,63.2467777,25.9209164,2018
Europe,Germany,91,40.4203479,-79.1166983,2018
Americas,Honduras,91,15.2572432,-86.0755145,2018
Europe,Iceland,91,64.9841821,-18.1059013,2018
Africa,Malawi,91,-13.2687204,33.9301963,2018
Africa,Mozambique,91,-19.302233,34.9144977,2018
South-East Asia,Myanmar,91,22.0452303,96.4514694,2018
South-East Asia,Nepal,91,31.2496266,73.6632218,2018
Europe,San Marino,91,43.9458623,12.458306,2018
Americas,Uruguay,91,-32.8755548,-56.0201525,2018
Europe,Armenia,92,4.491976149999999,-75.74135085294314,2018
Europe,Bulgaria,92,46.7889169,23.6184909,2018
Americas,Colombia,92,4.099917,-72.9088133,2018
Europe,Estonia,92,58.7523778,25.3319078,2018
Eastern Mediterranean,Jordan,92,32.3635964,35.561242,2018
Africa,Kenya,92,1.4419683,38.4313975,2018
Europe,Kyrgyzstan,92,42.4858224,74.714583,2018
Europe,Lithuania,92,55.3500003,23.7499997,2018
Europe,The former Yugoslav Republic of Macedonia,92,,,2018
Africa,Senegal,92,14.4750607,-14.4529612,2018
Africa,Gambia,93,13.470062,-15.4900464,2018
Europe,Georgia,93,32.3293809,-83.1137366,2018
Western Pacific,Kiribati,93,0.3448612,173.6641773,2018
Europe,Netherlands,93,52.2434979,5.6343227,2018
Western Pacific,New Zealand,93,-41.5000831,172.8344077,2018
Africa,Sierra Leone,93,8.6400349,-11.8400269,2018
Europe,Slovenia,93,46.1199444,14.8153333,2018
Eastern Mediterranean,Sudan,93,10.9,6.5,2018
Americas,United States of America,93,39.7837304,-100.445882,2018
Americas,Antigua and Barbuda,94,17.2234721,-61.9554608,2018
Americas,Barbados,94,13.1500331,-59.5250305,2018
Africa,Comoros,94,-12.2045176,44.2832964,2018
Americas,Costa Rica,94,9.5364569,-84.17566257468567,2018
Europe,Croatia,94,45.3658443,15.6575209,2018
Americas,Dominica,94,15.4113138,-61.3653618,2018
Western Pacific,Fiji,94,-18.1239696,179.0122737,2018
Americas,Guyana,94,4.8417097,-58.6416891,2018
Europe,Ireland,94,52.865196,-7.9794599,2018
Europe,Republic of Moldova,94,47.2879608,28.5670941,2018
Europe,United Kingdom of Great Britain and Northern Ireland,94,54.7023545,-3.2765753,2018
Western Pacific,Australia,95,-24.7761086,134.755,2018
Americas,Chile,95,-31.7613365,-71.3187697,2018
Eastern Mediterranean,Egypt,95,35.8681298,-90.9456751,2018
Africa,Eritrea,95,15.9500319,37.9999668,2018
Europe,Italy,95,42.6384261,12.674297,2018
Americas,Saint Lucia,95,13.8250489,-60.975036,2018
Africa,Sao Tome and Principe,95,0.9713095,7.02255,2018
Europe,Azerbaijan,96,40.3936294,47.7872508,2018
Americas,Belize,96,16.8259793,-88.7600927,2018
Africa,Botswana,96,-23.1681782,24.5928742,2018
Europe,Czechia,96,49.7439047,15.3381061,2018
Europe,France,96,46.603354,1.8883335,2018
Americas,Grenada,96,12.1360374,-61.6904045,2018
Europe,Latvia,96,56.8406494,24.7537645,2018
Europe,Norway,96,64.5731537,11.52803643954819,2018
Europe,Russian Federation,96,64.6863136,97.7453061,2018
Europe,Serbia,96,44.02432285,21.07657433209902,2018
Europe,Slovakia,96,48.7411522,19.4528646,2018
Europe,Spain,96,39.3260685,-4.8379791,2018
Europe,Switzerland,96,46.7985624,8.2319736,2018
Europe,Tajikistan,96,38.6281733,70.8156541,2018
South-East Asia,Bhutan,97,33.0204804,75.6458366,2018
Europe,Cyprus,97,34.9174159,32.889902651331866,2018
Europe,Denmark,97,55.670249,10.3333283,2018
Europe,Malta,97,35.8885993,14.4476911,2018
Africa,Rwanda,97,-1.9646631,30.0644358,2018
Western Pacific,Singapore,97,1.357107,103.8194992,2018
Europe,Sweden,97,44.133435,-70.822678,2018
South-East Asia,Thailand,97,13.03876215,101.700176119076,2018
Eastern Mediterranean,Tunisia,97,36.8002068,10.1857757,2018
South-East Asia,Bangladesh,98,-0.2864982,36.0514231,2018
Europe,Belarus,98,53.4250605,27.6971358,2018
Europe,Belgium,98,50.6402809,4.6667145,2018
Africa,Cabo Verde,98,16.0000552,-24.0083947,2018
Africa,Ghana,98,8.0300284,-1.0800271,2018
Europe,Israel,98,30.8124247,34.8594762,2018
Americas,Jamaica,98,18.1850507,-77.3947693,2018
Western Pacific,Japan,98,36.5748441,139.2394179,2018
Europe,Kazakhstan,98,48.1012954,66.7780818,2018
Eastern Mediterranean,Kuwait,98,29.3796532,47.9734174,2018
Africa,Mauritius,98,-20.2759451,57.5703566,2018
Western Pacific,Palau,98,42.5717989,2.9600905,2018
Eastern Mediterranean,Qatar,98,39.1074426,47.5061085,2018
Western Pacific,Republic of Korea,98,36.638392,127.6961188,2018
Americas,Saint Kitts and Nevis,98,17.250512,-62.6725973,2018
Eastern Mediterranean,Saudi Arabia,98,25.6242618,42.3528328,2018
Europe,Türkiye,98,38.9597594,34.9249653,2018
Europe,Uzbekistan,98,41.32373,63.9528098,2018
Europe,Albania,99,1.2315264,-75.89204331320687,2018
Europe,Andorra,99,42.5407167,1.5732033,2018
Eastern Mediterranean,Bahrain,99,26.0280409,50.55316820508136,2018
Western Pacific,Brunei Darussalam,99,4.4137155,114.5653908,2018
Western Pacific,China,99,30.047992,-94.3357433,2018
Western Pacific,Cook Islands,99,-19.99697155,-157.78587140620786,2018
Americas,Cuba,99,23.0131338,-80.8328748,2018
South-East Asia,Democratic People's Republic of Korea,99,40.3736611,127.0870417,2018
Europe,Greece,99,43.2097838,-77.6930602,2018
Europe,Hungary,99,41.9767629,-72.7789842,2018
Eastern Mediterranean,Iran (Islamic Republic of),99,36.2619477,59.6051728,2018
Europe,Luxembourg,99,49.6112768,6.129799,2018
Western Pacific,Malaysia,99,4.5693754,102.2656823,2018
South-East Asia,Maldives,99,3.7203503,73.2244152,2018
Europe,Monaco,99,43.7323492,7.4276832,2018
Western Pacific,Mongolia,99,43.9382593,-79.2235563,2018
Eastern Mediterranean,Morocco,99,28.3347722,-10.371337908392649,2018
Americas,Nicaragua,99,12.6090157,-85.2936911,2018
Western Pacific,Niue,99,-19.0536414,-169.861341,2018
Eastern Mediterranean,Occupied Palestinian territory,99,,,2018
Eastern Mediterranean,Oman,99,42.2679001,26.9246399,2018
Europe,Portugal,99,39.6621648,-8.1353519,2018
Americas,Saint Vincent and the Grenadines,99,12.90447,-61.2765569,2018
Africa,Seychelles,99,-4.6574977,55.4540146,2018
South-East Asia,Sri Lanka,99,7.5554942,80.7137847,2018
Western Pacific,Tonga,99,-19.9160819,-175.202642,2018
Americas,Trinidad and Tobago,99,10.7466905,-61.0840075,2018
Europe,Turkmenistan,99,39.3763807,59.3924609,2018
Eastern Mediterranean,United Arab Emirates,99,24.0002488,53.9994829,2018
Western Pacific,Papua New Guinea,35,-5.6816069,144.2489081,2017
Africa,Chad,44,15.6134137,19.0156172,2017
Africa,Central African Republic,46,7.0323598,19.9981227,2017
Eastern Mediterranean,Somalia,47,8.3676771,49.083416,2017
Africa,Guinea,48,10.7226226,-10.7083587,2017
Europe,Ukraine,48,49.4871968,31.2718321,2017
Americas,Suriname,51,4.1413025,-56.0771187,2017
Africa,Angola,52,-11.8775768,17.5691241,2017
Eastern Mediterranean,Syrian Arab Republic,53,34.6401861,39.0494106,2017
Africa,Equatorial Guinea,55,1.613172,10.5170357,2017
Africa,Nigeria,55,9.6000359,7.9999721,2017
Africa,South Sudan,60,7.8699431,29.6667897,2017
Eastern Mediterranean,Yemen,62,16.3471243,47.8915271,2017
Americas,Haiti,64,19.1399952,-72.3570972,2017
Western Pacific,Samoa,66,-13.7693895,-172.12005,2017
Africa,Ethiopia,68,10.2116702,38.6521203,2017
Africa,Congo,69,-2.9814344,23.8222636,2017
Africa,Madagascar,69,-18.9249604,46.4416422,2017
Africa,Mauritania,70,20.2540382,-9.2399263,2017
Eastern Mediterranean,Afghanistan,71,33.7680065,66.2385139,2017
Africa,Democratic Republic of the Congo,71,-2.9814344,23.8222636,2017
Africa,Mali,72,16.3700359,-2.2900239,2017
Western Pacific,Micronesia (Federated States of),72,8.6062347,151.832744331612,2017
Africa,Cameroon,74,4.6125522,13.1535811,2017
Africa,Gabon,74,-0.8999695,11.6899699,2017
Africa,Benin,75,9.5293472,2.2584408,2017
Europe,Bosnia and Herzegovina,75,44.3053476,17.5961467,2017
Eastern Mediterranean,Pakistan,75,30.3308401,71.247499,2017
Eastern Mediterranean,Djibouti,76,11.8145966,42.8453061,2017
Africa,Togo,76,8.7800265,1.0199765,2017
Africa,Guinea-Bissau,79,11.815215,-15.2351044,2017
Africa,Liberia,79,5.7499721,-9.3658524,2017
Western Pacific,Marshall Islands,79,8.230816999999998,167.7953223704529,2017
Americas,Venezuela (Bolivarian Republic of),79,8.0018709,-66.1109318,2017
Americas,Dominican Republic,80,19.0974031,-70.3028026,2017
Western Pacific,Philippines,80,12.7503486,122.7312101,2017
Americas,Saint Lucia,80,13.8250489,-60.975036,2017
Western Pacific,Solomon Islands,80,-8.7053941,159.1070693851845,2017
Africa,Kenya,81,1.4419683,38.4313975,2017
Eastern Mediterranean,Lebanon,81,40.375713,-76.4626118,2017
Americas,Panama,81,8.559559,-81.1308434,2017
Africa,Côte d’Ivoire,82,7.9897371,-5.5679458,2017
Eastern Mediterranean,Iraq,82,33.0955793,44.1749775,2017
Europe,Romania,82,45.9852129,24.6859225,2017
Americas,Bolivia (Plurinational State of),83,-17.0568696,-64.9912286,2017
Americas,Ecuador,83,-1.3397668,-79.3666965,2017
Americas,El Salvador,83,13.8000382,-88.9140683,2017
Africa,Namibia,83,-23.2335499,17.3231107,2017
South-East Asia,Timor-Leste,83,-8.7443169,126.063482,2017
Western Pacific,Vanuatu,83,-16.5255069,168.1069154,2017
Americas,Argentina,84,-34.9964963,-64.9672817,2017
Americas,Brazil,84,-10.3333333,-53.2,2017
Western Pacific,Lao People's Democratic Republic,84,20.0171109,103.378253,2017
Africa,South Africa,84,-28.8166236,24.991639,2017
Americas,Mexico,85,19.4326296,-99.1331785,2017
Africa,Niger,85,17.7356214,9.3238432,2017
Africa,Lesotho,87,-29.6039267,28.3350193,2017
Africa,Malawi,87,-13.2687204,33.9301963,2017
Europe,Montenegro,87,-12.6998188,-38.3260762,2017
Western Pacific,Nauru,87,-0.5252306,166.9324426,2017
Americas,Belize,88,16.8259793,-88.7600927,2017
Western Pacific,Cambodia,88,4.0213151,-73.1292624,2017
South-East Asia,Indonesia,88,-2.4833826,117.8902853,2017
Americas,Peru,88,-6.8699697,-75.0458515,2017
Europe,Finland,89,63.2467777,25.9209164,2017
Europe,Iceland,89,64.9841821,-18.1059013,2017
South-East Asia,India,89,22.3511148,78.6677428,2017
South-East Asia,Myanmar,89,22.0452303,96.4514694,2017
Europe,San Marino,89,43.9458623,12.458306,2017
Africa,United Republic of Tanzania,89,-6.5247123,35.7878438,2017
Africa,Zimbabwe,89,-18.4554963,29.7468414,2017
Europe,Austria,90,47.59397,14.12456,2017
Africa,Eswatini,90,-26.5624806,31.3991317,2017
Americas,Guatemala,90,15.5855545,-90.345759,2017
Americas,Honduras,90,15.2572432,-86.0755145,2017
Western Pacific,Kiribati,90,0.3448612,173.6641773,2017
South-East Asia,Nepal,90,31.2496266,73.6632218,2017
Europe,Poland,90,52.215933,19.134422,2017
Europe,Republic of Moldova,90,47.2879608,28.5670941,2017
Africa,Sierra Leone,90,8.6400349,-11.8400269,2017
Africa,Uganda,90,1.5333554,32.2166578,2017
Africa,Algeria,91,28.0000272,2.9999825,2017
Americas,Barbados,91,13.1500331,-59.5250305,2017
Africa,Burkina Faso,91,12.0753083,-1.6880314,2017
Africa,Burundi,91,-3.426449,29.9324519,2017
Americas,Canada,91,61.0666922,-107.991707,2017
Americas,Dominica,91,15.4113138,-61.3653618,2017
Western Pacific,Fiji,91,-18.1239696,179.0122737,2017
Europe,Georgia,91,32.3293809,-83.1137366,2017
Europe,Germany,91,40.4203479,-79.1166983,2017
Americas,Grenada,91,12.1360374,-61.6904045,2017
Africa,Mozambique,91,-19.302233,34.9144977,2017
Europe,The former Yugoslav Republic of Macedonia,91,,,2017
Africa,Senegal,91,14.4750607,-14.4529612,2017
Europe,Bulgaria,92,46.7889169,23.6184909,2017
Americas,Colombia,92,4.099917,-72.9088133,2017
Europe,Croatia,92,45.3658443,15.6575209,2017
Africa,Gambia,92,13.470062,-15.4900464,2017
Americas,Paraguay,92,-23.3165935,-58.1693445,2017
Americas,United States of America,92,39.7837304,-100.445882,2017
Africa,Zambia,92,-14.5189121,27.5589884,2017
Americas,Chile,93,-31.7613365,-71.3187697,2017
Europe,Estonia,93,58.7523778,25.3319078,2017
Americas,Jamaica,93,18.1850507,-77.3947693,2017
Europe,Kyrgyzstan,93,42.4858224,74.714583,2017
Americas,Uruguay,93,-32.8755548,-56.0201525,2017
Americas,Antigua and Barbuda,94,17.2234721,-61.9554608,2017
Americas,Bahamas,94,24.7736546,-78.0000547,2017
Africa,Comoros,94,-12.2045176,44.2832964,2017
Europe,Czechia,94,49.7439047,15.3381061,2017
Eastern Mediterranean,Egypt,94,35.8681298,-90.9456751,2017
Africa,Ghana,94,8.0300284,-1.0800271,2017
Americas,Guyana,94,4.8417097,-58.6416891,2017
Europe,Lithuania,94,55.3500003,23.7499997,2017
Europe,Netherlands,94,52.2434979,5.6343227,2017
Western Pacific,New Zealand,94,-41.5000831,172.8344077,2017
Europe,Slovenia,94,46.1199444,14.8153333,2017
Americas,Trinidad and Tobago,94,10.7466905,-61.0840075,2017
Europe,United Kingdom of Great Britain and Northern Ireland,94,54.7023545,-3.2765753,2017
Western Pacific,Viet Nam,94,15.9266657,107.9650855,2017
Western Pacific,Australia,95,-24.7761086,134.755,2017
Africa,Eritrea,95,15.9500319,37.9999668,2017
Europe,Ireland,95,52.865196,-7.9794599,2017
Europe,Italy,95,42.6384261,12.674297,2017
Africa,Mauritius,95,-20.2759451,57.5703566,2017
Africa,Sao Tome and Principe,95,0.9713095,7.02255,2017
Europe,Serbia,95,44.02432285,21.07657433209902,2017
Europe,Spain,95,39.3260685,-4.8379791,2017
Eastern Mediterranean,Sudan,95,10.9,6.5,2017
Europe,Armenia,96,4.491976149999999,-75.74135085294314,2017
Africa,Botswana,96,-23.1681782,24.5928742,2017
Africa,Cabo Verde,96,16.0000552,-24.0083947,2017
Americas,Costa Rica,96,9.5364569,-84.17566257468567,2017
Europe,France,96,46.603354,1.8883335,2017
Eastern Mediterranean,Libya,96,26.8234472,18.1236723,2017
Europe,Norway,96,64.5731537,11.52803643954819,2017
Europe,Russian Federation,96,64.6863136,97.7453061,2017
Western Pacific,Singapore,96,1.357107,103.8194992,2017
Europe,Slovakia,96,48.7411522,19.4528646,2017
Europe,Switzerland,96,46.7985624,8.2319736,2017
Europe,Türkiye,96,38.9597594,34.9249653,2017
Western Pacific,Tuvalu,96,-8.6405212,179.1582918181797,2017
Eastern Mediterranean,United Arab Emirates,96,24.0002488,53.9994829,2017
Europe,Azerbaijan,97,40.3936294,47.7872508,2017
South-East Asia,Bhutan,97,33.0204804,75.6458366,2017
Europe,Cyprus,97,34.9174159,32.889902651331866,2017
Western Pacific,Japan,97,36.5748441,139.2394179,2017
Western Pacific,Palau,97,42.5717989,2.9600905,2017
Eastern Mediterranean,Qatar,97,39.1074426,47.5061085,2017
Western Pacific,Republic of Korea,97,36.638392,127.6961188,2017
Americas,Saint Kitts and Nevis,97,17.250512,-62.6725973,2017
Eastern Mediterranean,Saudi Arabia,97,25.6242618,42.3528328,2017
Africa,Seychelles,97,-4.6574977,55.4540146,2017
Europe,Sweden,97,44.133435,-70.822678,2017
Europe,Tajikistan,97,38.6281733,70.8156541,2017
Eastern Mediterranean,Bahrain,98,26.0280409,50.55316820508136,2017
South-East Asia,Bangladesh,98,-0.2864982,36.0514231,2017
Europe,Belarus,98,53.4250605,27.6971358,2017
Europe,Belgium,98,50.6402809,4.6667145,2017
Americas,Cuba,98,23.0131338,-80.8328748,2017
Europe,Denmark,98,55.670249,10.3333283,2017
Europe,Israel,98,30.8124247,34.8594762,2017
Europe,Latvia,98,56.8406494,24.7537645,2017
Europe,Malta,98,35.8885993,14.4476911,2017
Europe,Portugal,98,39.6621648,-8.1353519,2017
Africa,Rwanda,98,-1.9646631,30.0644358,2017
Eastern Mediterranean,Tunisia,98,36.8002068,10.1857757,2017
Europe,Albania,99,1.2315264,-75.89204331320687,2017
Europe,Andorra,99,42.5407167,1.5732033,2017
Western Pacific,Brunei Darussalam,99,4.4137155,114.5653908,2017
Western Pacific,China,99,30.047992,-94.3357433,2017
Western Pacific,Cook Islands,99,-19.99697155,-157.78587140620786,2017
South-East Asia,Democratic People's Republic of Korea,99,40.3736611,127.0870417,2017
Europe,Greece,99,43.2097838,-77.6930602,2017
Europe,Hungary,99,41.9767629,-72.7789842,2017
Eastern Mediterranean,Iran (Islamic Republic of),99,36.2619477,59.6051728,2017
Eastern Mediterranean,Jordan,99,32.3635964,35.561242,2017
Europe,Kazakhstan,99,48.1012954,66.7780818,2017
Eastern Mediterranean,Kuwait,99,29.3796532,47.9734174,2017
Europe,Luxembourg,99,49.6112768,6.129799,2017
Western Pacific,Malaysia,99,4.5693754,102.2656823,2017
South-East Asia,Maldives,99,3.7203503,73.2244152,2017
Europe,Monaco,99,43.7323492,7.4276832,2017
Western Pacific,Mongolia,99,43.9382593,-79.2235563,2017
Eastern Mediterranean,Morocco,99,28.3347722,-10.371337908392649,2017
Americas,Nicaragua,99,12.6090157,-85.2936911,2017
Western Pacific,Niue,99,-19.0536414,-169.861341,2017
Eastern Mediterranean,Occupied Palestinian territory,99,,,2017
Eastern Mediterranean,Oman,99,42.2679001,26.9246399,2017
Americas,Saint Vincent and the Grenadines,99,12.90447,-61.2765569,2017
South-East Asia,Sri Lanka,99,7.5554942,80.7137847,2017
South-East Asia,Thailand,99,13.03876215,101.700176119076,2017
Western Pacific,Tonga,99,-19.9160819,-175.202642,2017
Europe,Turkmenistan,99,39.3763807,59.3924609,2017
Europe,Uzbekistan,99,41.32373,63.9528098,2017
Africa,Chad,44,15.6134137,19.0156172,2016
Africa,South Sudan,45,7.8699431,29.6667897,2016
Eastern Mediterranean,Somalia,47,8.3676771,49.083416,2016
Africa,Guinea,48,10.7226226,-10.7083587,2016
Western Pacific,Papua New Guinea,48,-5.6816069,144.2489081,2016
Eastern Mediterranean,Syrian Arab Republic,48,34.6401861,39.0494106,2016
Africa,Central African Republic,52,7.0323598,19.9981227,2016
Africa,Nigeria,53,9.6000359,7.9999721,2016
Africa,Equatorial Guinea,55,1.613172,10.5170357,2016
Europe,Ukraine,56,49.4871968,31.2718321,2016
Africa,Angola,58,-11.8775768,17.5691241,2016
Americas,Haiti,65,19.1399952,-72.3570972,2016
Eastern Mediterranean,Yemen,65,16.3471243,47.8915271,2016
Africa,Democratic Republic of the Congo,66,-2.9814344,23.8222636,2016
Eastern Mediterranean,Djibouti,68,11.8145966,42.8453061,2016
Western Pacific,Micronesia (Federated States of),68,8.6062347,151.832744331612,2016
Africa,Ethiopia,69,10.2116702,38.6521203,2016
Western Pacific,Marshall Islands,69,8.230816999999998,167.7953223704529,2016
Africa,Mauritania,69,20.2540382,-9.2399263,2016
Eastern Mediterranean,Afghanistan,71,33.7680065,66.2385139,2016
Africa,Congo,71,-2.9814344,23.8222636,2016
Americas,Brazil,72,-10.3333333,-53.2,2016
Africa,Madagascar,72,-18.9249604,46.4416422,2016
Africa,Mali,72,16.3700359,-2.2900239,2016
Africa,Liberia,73,5.7499721,-9.3658524,2016
Western Pacific,Samoa,73,-13.7693895,-172.12005,2016
Africa,Gabon,74,-0.8999695,11.6899699,2016
Africa,Benin,75,9.5293472,2.2584408,2016
Africa,Cameroon,75,4.6125522,13.1535811,2016
Eastern Mediterranean,Pakistan,75,30.3308401,71.247499,2016
Eastern Mediterranean,Iraq,76,33.0955793,44.1749775,2016
Americas,Suriname,77,4.1413025,-56.0771187,2016
Europe,Bosnia and Herzegovina,79,44.3053476,17.5961467,2016
Americas,Ecuador,79,-1.3397668,-79.3666965,2016
South-East Asia,Timor-Leste,79,-8.7443169,126.063482,2016
Africa,Côte d’Ivoire,81,7.9897371,-5.5679458,2016
Africa,Guinea-Bissau,81,11.815215,-15.2351044,2016
Eastern Mediterranean,Lebanon,81,40.375713,-76.4626118,2016
Western Pacific,Philippines,81,12.7503486,122.7312101,2016
Africa,Togo,81,8.7800265,1.0199765,2016
Western Pacific,Vanuatu,81,-16.5255069,168.1069154,2016
Americas,Dominican Republic,82,19.0974031,-70.3028026,2016
Europe,Kazakhstan,82,48.1012954,66.7780818,2016
Western Pacific,Kiribati,82,0.3448612,173.6641773,2016
Africa,Niger,82,17.7356214,9.3238432,2016
Americas,Venezuela (Bolivarian Republic of),82,8.0018709,-66.1109318,2016
Western Pacific,Lao People's Democratic Republic,83,20.0171109,103.378253,2016
Africa,Malawi,83,-13.2687204,33.9301963,2016
Americas,Guatemala,84,15.5855545,-90.345759,2016
Africa,Namibia,84,-23.2335499,17.3231107,2016
Africa,Sierra Leone,84,8.6400349,-11.8400269,2016
Americas,Trinidad and Tobago,84,10.7466905,-61.0840075,2016
South-East Asia,Indonesia,85,-2.4833826,117.8902853,2016
South-East Asia,Nepal,85,31.2496266,73.6632218,2016
Africa,South Africa,85,-28.8166236,24.991639,2016
South-East Asia,India,86,22.3511148,78.6677428,2016
Americas,Panama,86,8.559559,-81.1308434,2016
Europe,San Marino,86,43.9458623,12.458306,2016
Americas,Antigua and Barbuda,87,17.2234721,-61.9554608,2016
Americas,Argentina,87,-34.9964963,-64.9672817,2016
Europe,Austria,87,47.59397,14.12456,2016
Americas,Bolivia (Plurinational State of),87,-17.0568696,-64.9912286,2016
Africa,Lesotho,87,-29.6039267,28.3350193,2016
Western Pacific,Cambodia,88,4.0213151,-73.1292624,2016
Africa,Kenya,88,1.4419683,38.4313975,2016
Americas,Peru,88,-6.8699697,-75.0458515,2016
Africa,Uganda,88,1.5333554,32.2166578,2016
Western Pacific,Fiji,89,-18.1239696,179.0122737,2016
Europe,Montenegro,89,-12.6998188,-38.3260762,2016
South-East Asia,Myanmar,89,22.0452303,96.4514694,2016
Europe,Romania,89,45.9852129,24.6859225,2016
Western Pacific,Solomon Islands,89,-8.7053941,159.1070693851845,2016
Africa,United Republic of Tanzania,89,-6.5247123,35.7878438,2016
Africa,Eswatini,90,-26.5624806,31.3991317,2016
Africa,Mozambique,90,-19.302233,34.9144977,2016
Africa,Zimbabwe,90,-18.4554963,29.7468414,2016
Africa,Algeria,91,28.0000272,2.9999825,2016
Africa,Burkina Faso,91,12.0753083,-1.6880314,2016
Americas,Canada,91,61.0666922,-107.991707,2016
Americas,Colombia,91,4.099917,-72.9088133,2016
Europe,Germany,91,40.4203479,-79.1166983,2016
Europe,Iceland,91,64.9841821,-18.1059013,2016
Europe,Republic of Moldova,91,47.2879608,28.5670941,2016
Africa,Zambia,91,-14.5189121,27.5589884,2016
Europe,Bulgaria,92,46.7889169,23.6184909,2016
Africa,Comoros,92,-12.2045176,44.2832964,2016
Europe,Finland,92,63.2467777,25.9209164,2016
Europe,Georgia,92,32.3293809,-83.1137366,2016
Western Pacific,New Zealand,92,-41.5000831,172.8344077,2016
Europe,Poland,92,52.215933,19.134422,2016
Africa,Senegal,92,14.4750607,-14.4529612,2016
Europe,Croatia,93,45.3658443,15.6575209,2016
Europe,Estonia,93,58.7523778,25.3319078,2016
Europe,Italy,93,42.6384261,12.674297,2016
Americas,Mexico,93,19.4326296,-99.1331785,2016
Americas,Paraguay,93,-23.3165935,-58.1693445,2016
Europe,Serbia,93,44.02432285,21.07657433209902,2016
Eastern Mediterranean,Sudan,93,10.9,6.5,2016
Western Pacific,Australia,94,-24.7761086,134.755,2016
Americas,Bahamas,94,24.7736546,-78.0000547,2016
Africa,Burundi,94,-3.426449,29.9324519,2016
Europe,Denmark,94,55.670249,10.3333283,2016
Americas,Guyana,94,4.8417097,-58.6416891,2016
Europe,Israel,94,30.8124247,34.8594762,2016
Europe,Lithuania,94,55.3500003,23.7499997,2016
Europe,Slovenia,94,46.1199444,14.8153333,2016
Western Pacific,Tuvalu,94,-8.6405212,179.1582918181797,2016
Europe,United Kingdom of Great Britain and Northern Ireland,94,54.7023545,-3.2765753,2016
Americas,United States of America,94,39.7837304,-100.445882,2016
Africa,Cabo Verde,95,16.0000552,-24.0083947,2016
Americas,Chile,95,-31.7613365,-71.3187697,2016
Eastern Mediterranean,Egypt,95,35.8681298,-90.9456751,2016
Africa,Eritrea,95,15.9500319,37.9999668,2016
Africa,Gambia,95,13.470062,-15.4900464,2016
Africa,Ghana,95,8.0300284,-1.0800271,2016
Americas,Honduras,95,15.2572432,-86.0755145,2016
Europe,Ireland,95,52.865196,-7.9794599,2016
Europe,Netherlands,95,52.2434979,5.6343227,2016
Europe,The former Yugoslav Republic of Macedonia,95,,,2016
Americas,Saint Lucia,95,13.8250489,-60.975036,2016
Americas,Uruguay,95,-32.8755548,-56.0201525,2016
Western Pacific,Viet Nam,95,15.9266657,107.9650855,2016
Europe,Armenia,96,4.491976149999999,-75.74135085294314,2016
Americas,Belize,96,16.8259793,-88.7600927,2016
Africa,Botswana,96,-23.1681782,24.5928742,2016
Europe,Czechia,96,49.7439047,15.3381061,2016
Europe,France,96,46.603354,1.8883335,2016
Africa,Mauritius,96,-20.2759451,57.5703566,2016
Europe,Norway,96,64.5731537,11.52803643954819,2016
Africa,Sao Tome and Principe,96,0.9713095,7.02255,2016
Africa,Seychelles,96,-4.6574977,55.4540146,2016
Western Pacific,Singapore,96,1.357107,103.8194992,2016
Europe,Slovakia,96,48.7411522,19.4528646,2016
Europe,Switzerland,96,46.7985624,8.2319736,2016
Western Pacific,Tonga,96,-19.9160819,-175.202642,2016
Americas,Barbados,97,13.1500331,-59.5250305,2016
South-East Asia,Bhutan,97,33.0204804,75.6458366,2016
Americas,Costa Rica,97,9.5364569,-84.17566257468567,2016
Europe,Cyprus,97,34.9174159,32.889902651331866,2016
Europe,Kyrgyzstan,97,42.4858224,74.714583,2016
Eastern Mediterranean,Libya,97,26.8234472,18.1236723,2016
Europe,Malta,97,35.8885993,14.4476911,2016
Western Pacific,Nauru,97,-0.5252306,166.9324426,2016
Europe,Russian Federation,97,64.6863136,97.7453061,2016
Eastern Mediterranean,Saudi Arabia,97,25.6242618,42.3528328,2016
Europe,Spain,97,39.3260685,-4.8379791,2016
Europe,Tajikistan,97,38.6281733,70.8156541,2016
Europe,Albania,98,1.2315264,-75.89204331320687,2016
Europe,Andorra,98,42.5407167,1.5732033,2016
Europe,Azerbaijan,98,40.3936294,47.7872508,2016
South-East Asia,Bangladesh,98,-0.2864982,36.0514231,2016
Europe,Belarus,98,53.4250605,27.6971358,2016
Europe,Belgium,98,50.6402809,4.6667145,2016
Americas,Cuba,98,23.0131338,-80.8328748,2016
Americas,El Salvador,98,13.8000382,-88.9140683,2016
Americas,Grenada,98,12.1360374,-61.6904045,2016
Eastern Mediterranean,Jordan,98,32.3635964,35.561242,2016
Europe,Latvia,98,56.8406494,24.7537645,2016
Western Pacific,Malaysia,98,4.5693754,102.2656823,2016
Western Pacific,Palau,98,42.5717989,2.9600905,2016
Europe,Portugal,98,39.6621648,-8.1353519,2016
Eastern Mediterranean,Qatar,98,39.1074426,47.5061085,2016
Western Pacific,Republic of Korea,98,36.638392,127.6961188,2016
Europe,Sweden,98,44.133435,-70.822678,2016
Europe,Türkiye,98,38.9597594,34.9249653,2016
Eastern Mediterranean,Tunisia,98,36.8002068,10.1857757,2016
Europe,Turkmenistan,98,39.3763807,59.3924609,2016
Eastern Mediterranean,Bahrain,99,26.0280409,50.55316820508136,2016
Western Pacific,Brunei Darussalam,99,4.4137155,114.5653908,2016
Western Pacific,China,99,30.047992,-94.3357433,2016
Western Pacific,Cook Islands,99,-19.99697155,-157.78587140620786,2016
South-East Asia,Democratic People's Republic of Korea,99,40.3736611,127.0870417,2016
Americas,Dominica,99,15.4113138,-61.3653618,2016
Europe,Greece,99,43.2097838,-77.6930602,2016
Europe,Hungary,99,41.9767629,-72.7789842,2016
Eastern Mediterranean,Iran (Islamic Republic of),99,36.2619477,59.6051728,2016
Americas,Jamaica,99,18.1850507,-77.3947693,2016
Western Pacific,Japan,99,36.5748441,139.2394179,2016
Eastern Mediterranean,Kuwait,99,29.3796532,47.9734174,2016
Europe,Luxembourg,99,49.6112768,6.129799,2016
South-East Asia,Maldives,99,3.7203503,73.2244152,2016
Europe,Monaco,99,43.7323492,7.4276832,2016
Western Pacific,Mongolia,99,43.9382593,-79.2235563,2016
Eastern Mediterranean,Morocco,99,28.3347722,-10.371337908392649,2016
Americas,Nicaragua,99,12.6090157,-85.2936911,2016
Western Pacific,Niue,99,-19.0536414,-169.861341,2016
Eastern Mediterranean,Occupied Palestinian territory,99,,,2016
Eastern Mediterranean,Oman,99,42.2679001,26.9246399,2016
Africa,Rwanda,99,-1.9646631,30.0644358,2016
Americas,Saint Kitts and Nevis,99,17.250512,-62.6725973,2016
Americas,Saint Vincent and the Grenadines,99,12.90447,-61.2765569,2016
South-East Asia,Sri Lanka,99,7.5554942,80.7137847,2016
South-East Asia,Thailand,99,13.03876215,101.700176119076,2016
Eastern Mediterranean,United Arab Emirates,99,24.0002488,53.9994829,2016
Europe,Uzbekistan,99,41.32373,63.9528098,2016
Africa,Equatorial Guinea,37,1.613172,10.5170357,2015
Africa,Nigeria,42,9.6000359,7.9999721,2015
Africa,Guinea,47,10.7226226,-10.7083587,2015
Eastern Mediterranean,Somalia,47,8.3676771,49.083416,2015
Eastern Mediterranean,Syrian Arab Republic,50,34.6401861,39.0494106,2015
Africa,Central African Republic,51,7.0323598,19.9981227,2015
Western Pacific,Papua New Guinea,51,-5.6816069,144.2489081,2015
Europe,Ukraine,51,49.4871968,31.2718321,2015
Africa,Chad,52,15.6134137,19.0156172,2015
Africa,South Sudan,52,7.8699431,29.6667897,2015
Africa,Angola,62,-11.8775768,17.5691241,2015
Eastern Mediterranean,Yemen,63,16.3471243,47.8915271,2015
Americas,Haiti,65,19.1399952,-72.3570972,2015
Africa,Liberia,65,5.7499721,-9.3658524,2015
Eastern Mediterranean,Afghanistan,67,33.7680065,66.2385139,2015
Africa,Mali,67,16.3700359,-2.2900239,2015
Africa,Mauritania,67,20.2540382,-9.2399263,2015
Africa,Madagascar,68,-18.9249604,46.4416422,2015
Africa,Democratic Republic of the Congo,69,-2.9814344,23.8222636,2015
Western Pacific,Micronesia (Federated States of),71,8.6062347,151.832744331612,2015
Africa,Benin,72,9.5293472,2.2584408,2015
Eastern Mediterranean,Iraq,72,33.0955793,44.1749775,2015
Eastern Mediterranean,Pakistan,72,30.3308401,71.247499,2015
Americas,Panama,72,8.559559,-81.1308434,2015
Europe,Bosnia and Herzegovina,74,44.3053476,17.5961467,2015
Africa,Ethiopia,75,10.2116702,38.6521203,2015
South-East Asia,Timor-Leste,75,-8.7443169,126.063482,2015
Africa,Côte d’Ivoire,77,7.9897371,-5.5679458,2015
Africa,Cameroon,77,4.6125522,13.1535811,2015
Western Pacific,Samoa,78,-13.7693895,-172.12005,2015
Americas,Suriname,78,4.1413025,-56.0771187,2015
Africa,Gabon,79,-0.8999695,11.6899699,2015
Western Pacific,Philippines,79,12.7503486,122.7312101,2015
Africa,Congo,80,-2.9814344,23.8222636,2015
Americas,Guatemala,80,15.5855545,-90.345759,2015
Western Pacific,Kiribati,80,0.3448612,173.6641773,2015
Western Pacific,Vanuatu,80,-16.5255069,168.1069154,2015
Eastern Mediterranean,Lebanon,81,40.375713,-76.4626118,2015
Africa,Togo,82,8.7800265,1.0199765,2015
Africa,Guinea-Bissau,83,11.815215,-15.2351044,2015
Africa,Kenya,83,1.4419683,38.4313975,2015
Western Pacific,Lao People's Democratic Republic,83,20.0171109,103.378253,2015
Africa,Niger,83,17.7356214,9.3238432,2015
Eastern Mediterranean,Djibouti,84,11.8145966,42.8453061,2015
Americas,Ecuador,84,-1.3397668,-79.3666965,2015
Africa,Eswatini,84,-26.5624806,31.3991317,2015
South-East Asia,Indonesia,85,-2.4833826,117.8902853,2015
Africa,Lesotho,85,-29.6039267,28.3350193,2015
Western Pacific,Marshall Islands,85,8.230816999999998,167.7953223704529,2015
Europe,San Marino,85,43.9458623,12.458306,2015
Africa,Senegal,85,14.4750607,-14.4529612,2015
Western Pacific,Solomon Islands,85,-8.7053941,159.1070693851845,2015
Africa,South Africa,85,-28.8166236,24.991639,2015
Africa,Uganda,85,1.5333554,32.2166578,2015
Americas,Antigua and Barbuda,86,17.2234721,-61.9554608,2015
South-East Asia,India,86,22.3511148,78.6677428,2015
Africa,Sierra Leone,86,8.6400349,-11.8400269,2015
Americas,Dominican Republic,87,19.0974031,-70.3028026,2015
Americas,Mexico,87,19.4326296,-99.1331785,2015
Americas,Venezuela (Bolivarian Republic of),87,8.0018709,-66.1109318,2015
Americas,Bolivia (Plurinational State of),88,-17.0568696,-64.9912286,2015
Africa,Ghana,88,8.0300284,-1.0800271,2015
Africa,Malawi,88,-13.2687204,33.9301963,2015
Americas,Peru,88,-6.8699697,-75.0458515,2015
Europe,Republic of Moldova,88,47.2879608,28.5670941,2015
Americas,Trinidad and Tobago,88,10.7466905,-61.0840075,2015
Africa,Zimbabwe,88,-18.4554963,29.7468414,2015
Europe,Montenegro,89,-12.6998188,-38.3260762,2015
Africa,Mozambique,89,-19.302233,34.9144977,2015
South-East Asia,Myanmar,89,22.0452303,96.4514694,2015
Western Pacific,Palau,89,42.5717989,2.9600905,2015
Europe,Romania,89,45.9852129,24.6859225,2015
Western Pacific,Cambodia,90,4.0213151,-73.1292624,2015
South-East Asia,Nepal,90,31.2496266,73.6632218,2015
Africa,Zambia,90,-14.5189121,27.5589884,2015
Europe,Bulgaria,91,46.7889169,23.6184909,2015
Africa,Burkina Faso,91,12.0753083,-1.6880314,2015
Americas,Canada,91,61.0666922,-107.991707,2015
Americas,Colombia,91,4.099917,-72.9088133,2015
Europe,Georgia,91,32.3293809,-83.1137366,2015
Americas,Jamaica,91,18.1850507,-77.3947693,2015
Western Pacific,Nauru,91,-0.5252306,166.9324426,2015
Americas,Saint Kitts and Nevis,91,17.250512,-62.6725973,2015
Africa,Comoros,92,-12.2045176,44.2832964,2015
Americas,Costa Rica,92,9.5364569,-84.17566257468567,2015
Europe,Germany,92,40.4203479,-79.1166983,2015
Americas,Guyana,92,4.8417097,-58.6416891,2015
Europe,Iceland,92,64.9841821,-18.1059013,2015
Africa,Namibia,92,-23.2335499,17.3231107,2015
Western Pacific,New Zealand,92,-41.5000831,172.8344077,2015
Europe,The former Yugoslav Republic of Macedonia,92,,,2015
Europe,Poland,92,52.215933,19.134422,2015
Americas,Argentina,93,-34.9964963,-64.9672817,2015
Western Pacific,Australia,93,-24.7761086,134.755,2015
Europe,Austria,93,47.59397,14.12456,2015
Africa,Cabo Verde,93,16.0000552,-24.0083947,2015
Europe,Denmark,93,55.670249,10.3333283,2015
Eastern Mediterranean,Egypt,93,35.8681298,-90.9456751,2015
Europe,Estonia,93,58.7523778,25.3319078,2015
Europe,Italy,93,42.6384261,12.674297,2015
Europe,Lithuania,93,55.3500003,23.7499997,2015
Americas,Paraguay,93,-23.3165935,-58.1693445,2015
Eastern Mediterranean,Sudan,93,10.9,6.5,2015
Africa,United Republic of Tanzania,93,-6.5247123,35.7878438,2015
Americas,United States of America,93,39.7837304,-100.445882,2015
Americas,Belize,94,16.8259793,-88.7600927,2015
Africa,Burundi,94,-3.426449,29.9324519,2015
Europe,Croatia,94,45.3658443,15.6575209,2015
Americas,El Salvador,94,13.8000382,-88.9140683,2015
Europe,Latvia,94,56.8406494,24.7537645,2015
Africa,Algeria,95,28.0000272,2.9999825,2015
Americas,Bahamas,95,24.7736546,-78.0000547,2015
Africa,Eritrea,95,15.9500319,37.9999668,2015
Europe,Ireland,95,52.865196,-7.9794599,2015
Europe,Israel,95,30.8124247,34.8594762,2015
Europe,Netherlands,95,52.2434979,5.6343227,2015
Europe,Norway,95,64.5731537,11.52803643954819,2015
Europe,Serbia,95,44.02432285,21.07657433209902,2015
Europe,Slovenia,95,46.1199444,14.8153333,2015
Europe,United Kingdom of Great Britain and Northern Ireland,95,54.7023545,-3.2765753,2015
Americas,Uruguay,95,-32.8755548,-56.0201525,2015
Europe,Armenia,96,4.491976149999999,-75.74135085294314,2015
Africa,Botswana,96,-23.1681782,24.5928742,2015
Americas,Chile,96,-31.7613365,-71.3187697,2015
Africa,Gambia,96,13.470062,-15.4900464,2015
Africa,Sao Tome and Principe,96,0.9713095,7.02255,2015
Western Pacific,Singapore,96,1.357107,103.8194992,2015
Europe,Slovakia,96,48.7411522,19.4528646,2015
Europe,Switzerland,96,46.7985624,8.2319736,2015
Europe,Tajikistan,96,38.6281733,70.8156541,2015
Western Pacific,Tonga,96,-19.9160819,-175.202642,2015
Western Pacific,Tuvalu,96,-8.6405212,179.1582918181797,2015
Europe,Andorra,97,42.5407167,1.5732033,2015
Americas,Barbados,97,13.1500331,-59.5250305,2015
Europe,Cyprus,97,34.9174159,32.889902651331866,2015
Europe,Czechia,97,49.7439047,15.3381061,2015
Europe,Finland,97,63.2467777,25.9209164,2015
Europe,France,97,46.603354,1.8883335,2015
Europe,Kyrgyzstan,97,42.4858224,74.714583,2015
Eastern Mediterranean,Libya,97,26.8234472,18.1236723,2015
Europe,Malta,97,35.8885993,14.4476911,2015
Europe,Russian Federation,97,64.6863136,97.7453061,2015
Eastern Mediterranean,Saudi Arabia,97,25.6242618,42.3528328,2015
Africa,Seychelles,97,-4.6574977,55.4540146,2015
Europe,Spain,97,39.3260685,-4.8379791,2015
Europe,Türkiye,97,38.9597594,34.9249653,2015
Western Pacific,Viet Nam,97,15.9266657,107.9650855,2015
Europe,Azerbaijan,98,40.3936294,47.7872508,2015
Eastern Mediterranean,Bahrain,98,26.0280409,50.55316820508136,2015
South-East Asia,Bangladesh,98,-0.2864982,36.0514231,2015
South-East Asia,Bhutan,98,33.0204804,75.6458366,2015
Americas,Brazil,98,-10.3333333,-53.2,2015
Americas,Dominica,98,15.4113138,-61.3653618,2015
Americas,Honduras,98,15.2572432,-86.0755145,2015
Eastern Mediterranean,Iran (Islamic Republic of),98,36.2619477,59.6051728,2015
Europe,Kazakhstan,98,48.1012954,66.7780818,2015
Africa,Mauritius,98,-20.2759451,57.5703566,2015
Europe,Portugal,98,39.6621648,-8.1353519,2015
Western Pacific,Republic of Korea,98,36.638392,127.6961188,2015
Europe,Sweden,98,44.133435,-70.822678,2015
Eastern Mediterranean,Tunisia,98,36.8002068,10.1857757,2015
Europe,Albania,99,1.2315264,-75.89204331320687,2015
Europe,Belarus,99,53.4250605,27.6971358,2015
Europe,Belgium,99,50.6402809,4.6667145,2015
Western Pacific,Brunei Darussalam,99,4.4137155,114.5653908,2015
Western Pacific,China,99,30.047992,-94.3357433,2015
Western Pacific,Cook Islands,99,-19.99697155,-157.78587140620786,2015
Americas,Cuba,99,23.0131338,-80.8328748,2015
South-East Asia,Democratic People's Republic of Korea,99,40.3736611,127.0870417,2015
Western Pacific,Fiji,99,-18.1239696,179.0122737,2015
Europe,Greece,99,43.2097838,-77.6930602,2015
Americas,Grenada,99,12.1360374,-61.6904045,2015
Europe,Hungary,99,41.9767629,-72.7789842,2015
Western Pacific,Japan,99,36.5748441,139.2394179,2015
Eastern Mediterranean,Jordan,99,32.3635964,35.561242,2015
Eastern Mediterranean,Kuwait,99,29.3796532,47.9734174,2015
Europe,Luxembourg,99,49.6112768,6.129799,2015
Western Pacific,Malaysia,99,4.5693754,102.2656823,2015
South-East Asia,Maldives,99,3.7203503,73.2244152,2015
Europe,Monaco,99,43.7323492,7.4276832,2015
Western Pacific,Mongolia,99,43.9382593,-79.2235563,2015
Eastern Mediterranean,Morocco,99,28.3347722,-10.371337908392649,2015
Americas,Nicaragua,99,12.6090157,-85.2936911,2015
Western Pacific,Niue,99,-19.0536414,-169.861341,2015
Eastern Mediterranean,Occupied Palestinian territory,99,,,2015
Eastern Mediterranean,Oman,99,42.2679001,26.9246399,2015
Eastern Mediterranean,Qatar,99,39.1074426,47.5061085,2015
Africa,Rwanda,99,-1.9646631,30.0644358,2015
Americas,Saint Lucia,99,13.8250489,-60.975036,2015
Americas,Saint Vincent and the Grenadines,99,12.90447,-61.2765569,2015
South-East Asia,Sri Lanka,99,7.5554942,80.7137847,2015
South-East Asia,Thailand,99,13.03876215,101.700176119076,2015
Europe,Turkmenistan,99,39.3763807,59.3924609,2015
Eastern Mediterranean,United Arab Emirates,99,24.0002488,53.9994829,2015
Europe,Uzbekistan,99,41.32373,63.9528098,2015
Africa,Nigeria,40,9.6000359,7.9999721,2014
Africa,Guinea,42,10.7226226,-10.7083587,2014
Western Pacific,Papua New Guinea,43,-5.6816069,144.2489081,2014
Africa,Chad,44,15.6134137,19.0156172,2014
Europe,Ukraine,45,49.4871968,31.2718321,2014
Eastern Mediterranean,Somalia,47,8.3676771,49.083416,2014
Africa,Central African Republic,50,7.0323598,19.9981227,2014
Africa,South Sudan,52,7.8699431,29.6667897,2014
Eastern Mediterranean,Syrian Arab Republic,52,34.6401861,39.0494106,2014
Africa,Angola,55,-11.8775768,17.5691241,2014
Africa,Equatorial Guinea,55,1.613172,10.5170357,2014
Eastern Mediterranean,Afghanistan,62,33.7680065,66.2385139,2014
Africa,Liberia,62,5.7499721,-9.3658524,2014
Africa,Mali,62,16.3700359,-2.2900239,2014
Americas,Haiti,63,19.1399952,-72.3570972,2014
Americas,Guatemala,66,15.5855545,-90.345759,2014
Eastern Mediterranean,Yemen,67,16.3471243,47.8915271,2014
Africa,Ethiopia,68,10.2116702,38.6521203,2014
Africa,Gabon,68,-0.8999695,11.6899699,2014
Eastern Mediterranean,Pakistan,69,30.3308401,71.247499,2014
Africa,Benin,71,9.5293472,2.2584408,2014
Africa,Côte d’Ivoire,71,7.9897371,-5.5679458,2014
Africa,Madagascar,71,-18.9249604,46.4416422,2014
Africa,Democratic Republic of the Congo,72,-2.9814344,23.8222636,2014
Eastern Mediterranean,Iraq,76,33.0955793,44.1749775,2014
Western Pacific,Micronesia (Federated States of),76,8.6062347,151.832744331612,2014
Western Pacific,Samoa,76,-13.7693895,-172.12005,2014
Americas,Suriname,76,4.1413025,-56.0771187,2014
South-East Asia,Timor-Leste,76,-8.7443169,126.063482,2014
Western Pacific,Marshall Islands,77,8.230816999999998,167.7953223704529,2014
Eastern Mediterranean,Djibouti,78,11.8145966,42.8453061,2014
Americas,Peru,78,-6.8699697,-75.0458515,2014
Western Pacific,Solomon Islands,78,-8.7053941,159.1070693851845,2014
Africa,Uganda,78,1.5333554,32.2166578,2014
Africa,Zambia,78,-14.5189121,27.5589884,2014
Western Pacific,Kiribati,79,0.3448612,173.6641773,2014
Africa,Niger,79,17.7356214,9.3238432,2014
Americas,Venezuela (Bolivarian Republic of),79,8.0018709,-66.1109318,2014
Americas,Panama,80,8.559559,-81.1308434,2014
Western Pacific,Vanuatu,80,-16.5255069,168.1069154,2014
Americas,Grenada,81,12.1360374,-61.6904045,2014
Eastern Mediterranean,Lebanon,81,40.375713,-76.4626118,2014
Africa,Mauritania,81,20.2540382,-9.2399263,2014
Western Pacific,Philippines,82,12.7503486,122.7312101,2014
Africa,Togo,82,8.7800265,1.0199765,2014
Western Pacific,Lao People's Democratic Republic,83,20.0171109,103.378253,2014
Africa,Sierra Leone,83,8.6400349,-11.8400269,2014
Africa,Cameroon,84,4.6125522,13.1535811,2014
Americas,Ecuador,84,-1.3397668,-79.3666965,2014
Africa,Guinea-Bissau,84,11.815215,-15.2351044,2014
South-East Asia,India,84,22.3511148,78.6677428,2014
Europe,San Marino,84,43.9458623,12.458306,2014
Americas,Bolivia (Plurinational State of),85,-17.0568696,-64.9912286,2014
Africa,Senegal,85,14.4750607,-14.4529612,2014
Africa,South Africa,85,-28.8166236,24.991639,2014
Europe,Bosnia and Herzegovina,86,44.3053476,17.5961467,2014
Africa,Comoros,87,-12.2045176,44.2832964,2014
Africa,Malawi,87,-13.2687204,33.9301963,2014
Americas,Mexico,87,19.4326296,-99.1331785,2014
Europe,Bulgaria,88,46.7889169,23.6184909,2014
Africa,Lesotho,88,-29.6039267,28.3350193,2014
Africa,Mozambique,88,-19.302233,34.9144977,2014
South-East Asia,Myanmar,88,22.0452303,96.4514694,2014
Africa,Namibia,88,-23.2335499,17.3231107,2014
Western Pacific,Tuvalu,89,-8.6405212,179.1582918181797,2014
Americas,Colombia,90,4.099917,-72.9088133,2014
Africa,Congo,90,-2.9814344,23.8222636,2014
Americas,Dominican Republic,90,19.0974031,-70.3028026,2014
Europe,Iceland,90,64.9841821,-18.1059013,2014
South-East Asia,Indonesia,90,-2.4833826,117.8902853,2014
Africa,Burkina Faso,91,12.0753083,-1.6880314,2014
Western Pacific,Cambodia,91,4.0213151,-73.1292624,2014
Americas,Canada,91,61.0666922,-107.991707,2014
Americas,Costa Rica,91,9.5364569,-84.17566257468567,2014
Europe,Georgia,91,32.3293809,-83.1137366,2014
Europe,Montenegro,91,-12.6998188,-38.3260762,2014
Americas,Argentina,92,-34.9964963,-64.9672817,2014
Western Pacific,Australia,92,-24.7761086,134.755,2014
Europe,Latvia,92,56.8406494,24.7537645,2014
South-East Asia,Nepal,92,31.2496266,73.6632218,2014
Europe,Republic of Moldova,92,47.2879608,28.5670941,2014
Africa,Zimbabwe,92,-18.4554963,29.7468414,2014
Europe,Estonia,93,58.7523778,25.3319078,2014
Europe,Germany,93,40.4203479,-79.1166983,2014
Americas,Jamaica,93,18.1850507,-77.3947693,2014
Africa,Kenya,93,1.4419683,38.4313975,2014
Europe,Lithuania,93,55.3500003,23.7499997,2014
Western Pacific,New Zealand,93,-41.5000831,172.8344077,2014
Europe,Norway,93,64.5731537,11.52803643954819,2014
Americas,Paraguay,93,-23.3165935,-58.1693445,2014
Europe,Serbia,93,44.02432285,21.07657433209902,2014
Americas,United States of America,93,39.7837304,-100.445882,2014
Europe,Denmark,94,55.670249,10.3333283,2014
Eastern Mediterranean,Egypt,94,35.8681298,-90.9456751,2014
Americas,El Salvador,94,13.8000382,-88.9140683,2014
Africa,Eritrea,94,15.9500319,37.9999668,2014
Africa,Ghana,94,8.0300284,-1.0800271,2014
Eastern Mediterranean,Kuwait,94,29.3796532,47.9734174,2014
Eastern Mediterranean,Libya,94,26.8234472,18.1236723,2014
Europe,Poland,94,52.215933,19.134422,2014
Europe,Romania,94,45.9852129,24.6859225,2014
Eastern Mediterranean,Sudan,94,10.9,6.5,2014
Europe,Tajikistan,94,38.6281733,70.8156541,2014
Americas,Trinidad and Tobago,94,10.7466905,-61.0840075,2014
Africa,Algeria,95,28.0000272,2.9999825,2014
Europe,Armenia,95,4.491976149999999,-75.74135085294314,2014
Americas,Barbados,95,13.1500331,-59.5250305,2014
Americas,Belize,95,16.8259793,-88.7600927,2014
Africa,Burundi,95,-3.426449,29.9324519,2014
Africa,Cabo Verde,95,16.0000552,-24.0083947,2014
Americas,Chile,95,-31.7613365,-71.3187697,2014
Europe,Croatia,95,45.3658443,15.6575209,2014
Europe,Israel,95,30.8124247,34.8594762,2014
Europe,Italy,95,42.6384261,12.674297,2014
Europe,Kazakhstan,95,48.1012954,66.7780818,2014
Europe,Kyrgyzstan,95,42.4858224,74.714583,2014
Western Pacific,Nauru,95,-0.5252306,166.9324426,2014
Western Pacific,Palau,95,42.5717989,2.9600905,2014
Africa,Sao Tome and Principe,95,0.9713095,7.02255,2014
Europe,Slovenia,95,46.1199444,14.8153333,2014
Europe,United Kingdom of Great Britain and Northern Ireland,95,54.7023545,-3.2765753,2014
Americas,Uruguay,95,-32.8755548,-56.0201525,2014
Americas,Antigua and Barbuda,96,17.2234721,-61.9554608,2014
Americas,Bahamas,96,24.7736546,-78.0000547,2014
Africa,Botswana,96,-23.1681782,24.5928742,2014
Americas,Brazil,96,-10.3333333,-53.2,2014
Europe,Ireland,96,52.865196,-7.9794599,2014
Europe,Netherlands,96,52.2434979,5.6343227,2014
Europe,The former Yugoslav Republic of Macedonia,96,,,2014
Americas,Saint Kitts and Nevis,96,17.250512,-62.6725973,2014
Western Pacific,Singapore,96,1.357107,103.8194992,2014
Europe,Switzerland,96,46.7985624,8.2319736,2014
Europe,Türkiye,96,38.9597594,34.9249653,2014
Western Pacific,Viet Nam,96,15.9266657,107.9650855,2014
Europe,Andorra,97,42.5407167,1.5732033,2014
Europe,Azerbaijan,97,40.3936294,47.7872508,2014
South-East Asia,Bangladesh,97,-0.2864982,36.0514231,2014
Europe,Belarus,97,53.4250605,27.6971358,2014
Americas,Dominica,97,15.4113138,-61.3653618,2014
Africa,Gambia,97,13.470062,-15.4900464,2014
Americas,Guyana,97,4.8417097,-58.6416891,2014
Western Pacific,Malaysia,97,4.5693754,102.2656823,2014
Europe,Russian Federation,97,64.6863136,97.7453061,2014
Americas,Saint Vincent and the Grenadines,97,12.90447,-61.2765569,2014
Europe,Slovakia,97,48.7411522,19.4528646,2014
Europe,Spain,97,39.3260685,-4.8379791,2014
Europe,Sweden,97,44.133435,-70.822678,2014
Africa,United Republic of Tanzania,97,-6.5247123,35.7878438,2014
Europe,Albania,98,1.2315264,-75.89204331320687,2014
Europe,Austria,98,47.59397,14.12456,2014
South-East Asia,Bhutan,98,33.0204804,75.6458366,2014
Africa,Eswatini,98,-26.5624806,31.3991317,2014
Europe,Finland,98,63.2467777,25.9209164,2014
Europe,France,98,46.603354,1.8883335,2014
Eastern Mediterranean,Jordan,98,32.3635964,35.561242,2014
Africa,Mauritius,98,-20.2759451,57.5703566,2014
Europe,Portugal,98,39.6621648,-8.1353519,2014
Africa,Rwanda,98,-1.9646631,30.0644358,2014
Eastern Mediterranean,Saudi Arabia,98,25.6242618,42.3528328,2014
Western Pacific,Tonga,98,-19.9160819,-175.202642,2014
Eastern Mediterranean,Tunisia,98,36.8002068,10.1857757,2014
Europe,Turkmenistan,98,39.3763807,59.3924609,2014
Eastern Mediterranean,Bahrain,99,26.0280409,50.55316820508136,2014
Europe,Belgium,99,50.6402809,4.6667145,2014
Western Pacific,Brunei Darussalam,99,4.4137155,114.5653908,2014
Western Pacific,China,99,30.047992,-94.3357433,2014
Western Pacific,Cook Islands,99,-19.99697155,-157.78587140620786,2014
Americas,Cuba,99,23.0131338,-80.8328748,2014
Europe,Cyprus,99,34.9174159,32.889902651331866,2014
Europe,Czechia,99,49.7439047,15.3381061,2014
South-East Asia,Democratic People's Republic of Korea,99,40.3736611,127.0870417,2014
Western Pacific,Fiji,99,-18.1239696,179.0122737,2014
Europe,Greece,99,43.2097838,-77.6930602,2014
Americas,Honduras,99,15.2572432,-86.0755145,2014
Europe,Hungary,99,41.9767629,-72.7789842,2014
Eastern Mediterranean,Iran (Islamic Republic of),99,36.2619477,59.6051728,2014
Western Pacific,Japan,99,36.5748441,139.2394179,2014
Europe,Luxembourg,99,49.6112768,6.129799,2014
South-East Asia,Maldives,99,3.7203503,73.2244152,2014
Europe,Malta,99,35.8885993,14.4476911,2014
Europe,Monaco,99,43.7323492,7.4276832,2014
Western Pacific,Mongolia,99,43.9382593,-79.2235563,2014
Eastern Mediterranean,Morocco,99,28.3347722,-10.371337908392649,2014
Americas,Nicaragua,99,12.6090157,-85.2936911,2014
Western Pacific,Niue,99,-19.0536414,-169.861341,2014
Eastern Mediterranean,Occupied Palestinian territory,99,,,2014
Eastern Mediterranean,Oman,99,42.2679001,26.9246399,2014
Eastern Mediterranean,Qatar,99,39.1074426,47.5061085,2014
Western Pacific,Republic of Korea,99,36.638392,127.6961188,2014
Americas,Saint Lucia,99,13.8250489,-60.975036,2014
Africa,Seychelles,99,-4.6574977,55.4540146,2014
South-East Asia,Sri Lanka,99,7.5554942,80.7137847,2014
South-East Asia,Thailand,99,13.03876215,101.700176119076,2014
Eastern Mediterranean,United Arab Emirates,99,24.0002488,53.9994829,2014
Europe,Uzbekistan,99,41.32373,63.9528098,2014
Africa,Central African Republic,23,7.0323598,19.9981227,2013
Africa,Nigeria,40,9.6000359,7.9999721,2013
Africa,Chad,46,15.6134137,19.0156172,2013
Eastern Mediterranean,Somalia,47,8.3676771,49.083416,2013
Africa,Angola,48,-11.8775768,17.5691241,2013
Africa,Guinea,49,10.7226226,-10.7083587,2013
Eastern Mediterranean,Syrian Arab Republic,50,34.6401861,39.0494106,2013
Africa,South Sudan,56,7.8699431,29.6667897,2013
Africa,Equatorial Guinea,57,1.613172,10.5170357,2013
Africa,Mali,57,16.3700359,-2.2900239,2013
Africa,Niger,62,17.7356214,9.3238432,2013
Western Pacific,Papua New Guinea,62,-5.6816069,144.2489081,2013
Eastern Mediterranean,Afghanistan,64,33.7680065,66.2385139,2013
Americas,Haiti,64,19.1399952,-72.3570972,2013
Eastern Mediterranean,Pakistan,65,30.3308401,71.247499,2013
Eastern Mediterranean,Yemen,67,16.3471243,47.8915271,2013
Africa,Ethiopia,70,10.2116702,38.6521203,2013
Western Pacific,Cambodia,71,4.0213151,-73.1292624,2013
Africa,Democratic Republic of the Congo,71,-2.9814344,23.8222636,2013
Americas,Peru,71,-6.8699697,-75.0458515,2013
Africa,Madagascar,72,-18.9249604,46.4416422,2013
Europe,Ukraine,72,49.4871968,31.2718321,2013
Africa,Benin,73,9.5293472,2.2584408,2013
Africa,Côte d’Ivoire,74,7.9897371,-5.5679458,2013
Africa,Zambia,74,-14.5189121,27.5589884,2013
Eastern Mediterranean,Iraq,75,33.0955793,44.1749775,2013
South-East Asia,Myanmar,76,22.0452303,96.4514694,2013
Africa,Gabon,77,-0.8999695,11.6899699,2013
Americas,Suriname,78,4.1413025,-56.0771187,2013
Africa,Uganda,78,1.5333554,32.2166578,2013
Western Pacific,Vanuatu,78,-16.5255069,168.1069154,2013
Western Pacific,Marshall Islands,79,8.230816999999998,167.7953223704529,2013
Africa,South Africa,79,-28.8166236,24.991639,2013
Africa,Liberia,80,5.7499721,-9.3658524,2013
Africa,Mauritania,80,20.2540382,-9.2399263,2013
Eastern Mediterranean,Lebanon,81,40.375713,-76.4626118,2013
Western Pacific,Micronesia (Federated States of),81,8.6062347,151.832744331612,2013
Americas,Panama,81,8.559559,-81.1308434,2013
Western Pacific,Samoa,81,-13.7693895,-172.12005,2013
Eastern Mediterranean,Djibouti,82,11.8145966,42.8453061,2013
Americas,Dominican Republic,82,19.0974031,-70.3028026,2013
South-East Asia,India,82,22.3511148,78.6677428,2013
Western Pacific,Lao People's Democratic Republic,82,20.0171109,103.378253,2013
South-East Asia,Timor-Leste,82,-8.7443169,126.063482,2013
Americas,Venezuela (Bolivarian Republic of),82,8.0018709,-66.1109318,2013
Americas,Mexico,83,19.4326296,-99.1331785,2013
Africa,Mozambique,84,-19.302233,34.9144977,2013
Africa,Togo,84,8.7800265,1.0199765,2013
Africa,Comoros,85,-12.2045176,44.2832964,2013
Africa,Congo,85,-2.9814344,23.8222636,2013
Western Pacific,Philippines,85,12.7503486,122.7312101,2013
Western Pacific,Solomon Islands,85,-8.7053941,159.1070693851845,2013
Africa,Guinea-Bissau,86,11.815215,-15.2351044,2013
Americas,Jamaica,86,18.1850507,-77.3947693,2013
Europe,San Marino,86,43.9458623,12.458306,2013
Europe,Bosnia and Herzegovina,87,44.3053476,17.5961467,2013
Americas,Ecuador,87,-1.3397668,-79.3666965,2013
Western Pacific,Nauru,87,-0.5252306,166.9324426,2013
Americas,Bolivia (Plurinational State of),88,-17.0568696,-64.9912286,2013
Africa,Cameroon,88,4.6125522,13.1535811,2013
Europe,Romania,88,45.9852129,24.6859225,2013
Africa,Burkina Faso,89,12.0753083,-1.6880314,2013
Africa,Malawi,89,-13.2687204,33.9301963,2013
Africa,Namibia,89,-23.2335499,17.3231107,2013
Americas,Paraguay,89,-23.3165935,-58.1693445,2013
Africa,Senegal,89,14.4750607,-14.4529612,2013
Americas,Argentina,90,-34.9964963,-64.9672817,2013
Americas,Chile,90,-31.7613365,-71.3187697,2013
Americas,El Salvador,90,13.8000382,-88.9140683,2013
Africa,Lesotho,90,-29.6039267,28.3350193,2013
Western Pacific,Tuvalu,90,-8.6405212,179.1582918181797,2013
Western Pacific,Australia,91,-24.7761086,134.755,2013
Americas,Barbados,91,13.1500331,-59.5250305,2013
Americas,Canada,91,61.0666922,-107.991707,2013
Americas,Colombia,91,4.099917,-72.9088133,2013
Africa,Ghana,91,8.0300284,-1.0800271,2013
Europe,Iceland,91,64.9841821,-18.1059013,2013
Western Pacific,Kiribati,91,0.3448612,173.6641773,2013
Africa,United Republic of Tanzania,91,-6.5247123,35.7878438,2013
South-East Asia,Indonesia,92,-2.4833826,117.8902853,2013
South-East Asia,Nepal,92,31.2496266,73.6632218,2013
Western Pacific,New Zealand,92,-41.5000831,172.8344077,2013
Europe,Republic of Moldova,92,47.2879608,28.5670941,2013
Africa,Sierra Leone,92,8.6400349,-11.8400269,2013
Africa,Cabo Verde,93,16.0000552,-24.0083947,2013
Europe,Germany,93,40.4203479,-79.1166983,2013
Europe,Lithuania,93,55.3500003,23.7499997,2013
Eastern Mediterranean,Sudan,93,10.9,6.5,2013
Americas,United States of America,93,39.7837304,-100.445882,2013
Western Pacific,Viet Nam,93,15.9266657,107.9650855,2013
Europe,Denmark,94,55.670249,10.3333283,2013
Africa,Eritrea,94,15.9500319,37.9999668,2013
Europe,Estonia,94,58.7523778,25.3319078,2013
Europe,Georgia,94,32.3293809,-83.1137366,2013
Americas,Guatemala,94,15.5855545,-90.345759,2013
Africa,Kenya,94,1.4419683,38.4313975,2013
Europe,Latvia,94,56.8406494,24.7537645,2013
Europe,Montenegro,94,-12.6998188,-38.3260762,2013
Europe,Norway,94,64.5731537,11.52803643954819,2013
Americas,Trinidad and Tobago,94,10.7466905,-61.0840075,2013
Americas,Uruguay,94,-32.8755548,-56.0201525,2013
Africa,Algeria,95,28.0000272,2.9999825,2013
Europe,Austria,95,47.59397,14.12456,2013
Americas,Belize,95,16.8259793,-88.7600927,2013
Europe,Bulgaria,95,46.7889169,23.6184909,2013
Americas,Costa Rica,95,9.5364569,-84.17566257468567,2013
Europe,Poland,95,52.215933,19.134422,2013
Europe,Slovenia,95,46.1199444,14.8153333,2013
Europe,United Kingdom of Great Britain and Northern Ireland,95,54.7023545,-3.2765753,2013
Africa,Zimbabwe,95,-18.4554963,29.7468414,2013
Europe,Andorra,96,42.5407167,1.5732033,2013
Europe,Armenia,96,4.491976149999999,-75.74135085294314,2013
Europe,Azerbaijan,96,40.3936294,47.7872508,2013
South-East Asia,Bangladesh,96,-0.2864982,36.0514231,2013
Africa,Botswana,96,-23.1681782,24.5928742,2013
Americas,Brazil,96,-10.3333333,-53.2,2013
Africa,Burundi,96,-3.426449,29.9324519,2013
Europe,Croatia,96,45.3658443,15.6575209,2013
Americas,Dominica,96,15.4113138,-61.3653618,2013
Africa,Gambia,96,13.470062,-15.4900464,2013
Europe,Ireland,96,52.865196,-7.9794599,2013
Europe,Israel,96,30.8124247,34.8594762,2013
